Addresse,titre,price,piece,sqfeet_building,sqfeet_terrain,car_score,cafe_score,walk_score,park_score,beds,baths,image,quiet_score,cycling_score,transit_score,vibrant_score,daycares_score,primary_score,shopping_score,groceries_score,nightlife_score,restaurant_score,high_school_score,Lat,Lon,NOM,URL
"11355, Rue De La Gauchetière, Montréal",Triplex à vendre,485 000 $,,,5 000 pc,8,4,5,6,,,https://mspublic.centris.ca/media.ashx?id=ADDD250DCA31F02DDDDDDDDDD2&t=pi&w=640&h=480&sm=c,10,6,5,2,9,9,4,8,2,4,5,45.631948,-73.5008935,Montréal-Est,https://www.centris.ca/fr/condo~a-vendre~montreal-le-sud-ouest/28502502?view=Summary
"73, Avenue Broadway, Montréal",Condo à vendre,259 000 $,5 pièces,630 pc,,10,3,5,6,2 chambres,1 salle de bain,https://mspublic.centris.ca/media.ashx?id=ADDD250DC08DD1ADDDDDDDDDDB&t=pi&w=640&h=480&sm=c,6,6,5,2,9,9,4,8,2,4,4,45.63129751,-73.50182709,Montréal-Est,https://www.centris.ca/fr/condo~a-vendre~montreal-le-sud-ouest/28502502?view=Summary
"11136, Rue Dorchester, Montréal",Maison à vendre,394 000 $,11 pièces,,6 575 pc,9,2,3,6,3 chambres,3 salles de bain,https://mspublic.centris.ca/media.ashx?id=ADDD250DCE9DDBFDDDDDDDDDD0&t=pi&w=640&h=480&sm=c,0,6,4,2,9,9,4,8,2,4,3,45.6292315,-73.5049201,Montréal-Est,https://www.centris.ca/fr/condo~a-vendre~montreal-le-sud-ouest/28502502?view=Summary
"2730, Avenue Georges-V, Montréal",Condo à vendre,245 000 $,5 pièces,996 pc,,8,5,5,7,2 chambres,1 salle de bain,https://mspublic.centris.ca/media.ashx?id=ADDD250DCA6ABE5DDDDDDDDDDE&t=pi&w=640&h=480&sm=c,7,5,6,3,8,9,5,8,3,5,3,45.6127191,-73.5184223,Montréal-Est,https://www.centris.ca/fr/condo~a-vendre~montreal-le-sud-ouest/28502502?view=Summary
"252, Avenue Champêtre, Montréal",Maison à vendre,307 500 $,8 pièces,,4 325 pc,9,3,3,6,2 chambres,1 salle de bain et 1 salle d'eau,https://mspublic.centris.ca/media.ashx?id=ADDD250DC086010DDDDDDDDDDB&t=pi&w=640&h=480&sm=c,6,6,5,2,8,9,4,7,2,4,4,45.6300924,-73.507311,Montréal-Est,https://www.centris.ca/fr/condo~a-vendre~montreal-le-sud-ouest/28502502?view=Summary
"196, Avenue Dubé, Montréal",Triplex à vendre,689 000 $,,2 400 pc,4 661 pc,8,4,5,6,,,https://mspublic.centris.ca/media.ashx?id=ADDD250DCA6AF9CDDDDDDDDDD4&t=pi&w=640&h=480&sm=c,8,6,5,2,8,8,4,8,2,4,6,45.6321293,-73.4982685,Montréal-Est,https://www.centris.ca/fr/condo~a-vendre~montreal-le-sud-ouest/28502502?view=Summary
"11150, Rue Dorchester, Montréal",Maison à vendre,469 500 $,9 pièces,,4 130 pc,8,3,4,6,3 chambres,1 salle de bain,https://mspublic.centris.ca/media.ashx?id=ADDD250DC012BD6DDDDDDDDDDB&t=pi&w=640&h=480&sm=c,4,6,4,2,9,10,4,8,2,4,3,45.6298563,-73.5046086,Montréal-Est,https://www.centris.ca/fr/condo~a-vendre~montreal-le-sud-ouest/28502502?view=Summary
"152, Avenue Saint-Cyr, Montréal",Maison à vendre,394 000 $,9 pièces,,5 720 pc,8,4,5,6,3 chambres,3 salles de bain,https://mspublic.centris.ca/media.ashx?id=ADDD250DC01969EDDDDDDDDDDB&t=pi&w=640&h=480&sm=c,9,7,5,2,8,9,4,8,3,4,6,45.63391564,-73.50155715,Montréal-Est,https://www.centris.ca/fr/condo~a-vendre~montreal-le-sud-ouest/28502502?view=Summary
"11355, Rue De La Gauchetière, Montréal",Maison à vendre,485 000 $,5 pièces,,5 000 pc,8,4,5,6,3 chambres,1 salle de bain,https://mspublic.centris.ca/media.ashx?id=ADDD250DCA766FADDDDDDDDDD1&t=pi&w=640&h=480&sm=c,10,6,5,2,9,9,4,8,2,4,5,45.631948,-73.5008935,Montréal-Est,https://www.centris.ca/fr/condo~a-vendre~montreal-le-sud-ouest/28502502?view=Summary
"159, Avenue Lelièvre, Montréal",Maison à vendre,329 900 $,12 pièces,,2 089 pc,8,3,5,6,4 chambres (1 au sous-sol),1 salle de bain et 1 salle d'eau,https://mspublic.centris.ca/media.ashx?id=ADDD250DCABA38CDDDDDDDDDDB&t=pi&w=640&h=480&sm=c,8,6,5,2,9,10,4,8,2,4,4,45.630411,-73.5043034,Montréal-Est,https://www.centris.ca/fr/condo~a-vendre~montreal-le-sud-ouest/28502502?view=Summary
"160, Avenue de la Grande-Allée, Montréal",Triplex à vendre,839 000 $,,,4 160 pc,9,3,5,6,,,https://mspublic.centris.ca/media.ashx?id=ADDD250DCC2C303DDDDDDDDDDE&t=pi&w=640&h=480&sm=c,9,6,5,2,8,9,4,8,2,4,5,45.6308969,-73.5045034,Montréal-Est,https://www.centris.ca/fr/condo~a-vendre~montreal-le-sud-ouest/28502502?view=Summary
"10977, Rue Notre-Dame Est, Montréal",Duplex à vendre,289 000 $,,,2 739 pc,9,3,5,6,,,https://mspublic.centris.ca/media.ashx?id=ADDD250DC0F84CBDDDDDDDDDDC&t=pi&w=640&h=480&sm=c,9,6,5,2,8,9,4,8,2,4,5,45.62672126,-73.50124632,Montréal-Est,https://www.centris.ca/fr/condo~a-vendre~montreal-le-sud-ouest/28502502?view=Summary
"320, Avenue des Vétérans, Montréal",Maison à vendre,460 000 $,8 pièces,,4 085 pc,10,3,4,6,4 chambres (1 au sous-sol),2 salles de bain,https://mspublic.centris.ca/media.ashx?id=ADDD250DCA4C0EFDDDDDDDDDDD&t=pi&w=640&h=480&sm=c,6,5,5,2,8,8,4,7,1,4,5,45.63156927,-73.50865019,Montréal-Est,https://www.centris.ca/fr/condo~a-vendre~montreal-le-sud-ouest/28502502?view=Summary
"103, Avenue de la Grande-Allée, Montréal",Triplex à vendre,495 000 $,,,1 693 pc,8,3,5,6,,,https://mspublic.centris.ca/media.ashx?id=ADDD250DCC50444DDDDDDDDDDE&t=pi&w=640&h=480&sm=c,8,6,5,2,9,10,4,8,2,4,4,45.63079993,-73.50284467,Montréal-Est,https://www.centris.ca/fr/condo~a-vendre~montreal-le-sud-ouest/28502502?view=Summary
"2730, Avenue Georges-V, Montréal",Condo à vendre,249 900 $,4 pièces,990 pc,,8,5,5,7,2 chambres,1 salle de bain,https://mspublic.centris.ca/media.ashx?id=ADDD250D26D6512DDDDDDDDDDE&t=pi&w=640&h=480&sm=c,7,5,6,3,8,9,5,8,3,5,3,45.6127191,-73.5184223,Montréal-Est,https://www.centris.ca/fr/condo~a-vendre~montreal-le-sud-ouest/28502502?view=Summary
"22, Avenue Broadway, Montréal",Terrain à vendre,1 220 000 $,,,11 291 pc,10,2,5,6,,,https://mspublic.centris.ca/media.ashx?id=ADDD250D2520B52DDDDDDDDDDF&t=pi&w=640&h=480&sm=c,3,6,5,2,10,10,4,8,3,4,3,45.6319123,-73.5062039,Montréal-Est,https://www.centris.ca/fr/condo~a-vendre~montreal-le-sud-ouest/28502502?view=Summary
"11256, Rue De Montigny, Montréal",Maison à vendre,379 900 $,12 pièces,,4 300 pc,10,3,4,6,4 chambres (2 au sous-sol),2 salles de bain,https://mspublic.centris.ca/media.ashx?id=ADDD250DC08AD94DDDDDDDDDD0&t=pi&w=640&h=480&sm=c,6,5,5,2,8,8,4,7,1,4,5,45.632282,-73.509279,Montréal-Est,https://www.centris.ca/fr/condo~a-vendre~montreal-le-sud-ouest/28502502?view=Summary
"2225, Avenue Georges-V, Montréal",Triplex à vendre,639 900 $,,,6 267 pc,8,4,6,7,,,https://mspublic.centris.ca/media.ashx?id=ADDD250DC00266FDDDDDDDDDD0&t=pi&w=640&h=480&sm=c,2,6,6,3,7,9,4,8,3,4,5,45.61191176,-73.51257939,Montréal-Est,https://www.centris.ca/fr/condo~a-vendre~montreal-le-sud-ouest/28502502?view=Summary
"11310, Rue Notre-Dame Est, Montréal",Condo à vendre,574 900 $,10 pièces,1 326 pc,,8,2,5,6,2 chambres,1 salle de bain et 1 salle d'eau,https://mspublic.centris.ca/media.ashx?id=ADDD250DCAE56BCDDDDDDDDDD2&t=pi&w=640&h=480&sm=c,5,6,5,2,10,9,4,8,3,4,3,45.5858544,-73.5078805,Mercier-Hochelaga-Maisonneuve,https://www.centris.ca/fr/condo~a-vendre~montreal-le-sud-ouest/28502502?view=Summary
"52, Avenue Dubé, Montréal",Duplex à vendre,679 500 $,,,4 782 pc,8,3,5,6,,,https://mspublic.centris.ca/media.ashx?id=ADDD250DCA70938DDDDDDDDDDC&t=pi&w=640&h=480&sm=c,6,7,4,2,9,9,4,8,3,4,4,45.6321293,-73.4982685,Montréal-Est,https://www.centris.ca/fr/condo~a-vendre~montreal-le-sud-ouest/28502502?view=Summary
"332, Avenue Broadway, Montréal",Maison à vendre,319 000 $,7 pièces,,3 956 pc,10,3,4,6,2 chambres,1 salle de bain,https://mspublic.centris.ca/media.ashx?id=ADDD250DCEFB87CDDDDDDDDDDF&t=pi&w=640&h=480&sm=c,6,5,5,2,8,8,4,7,1,4,5,45.6323147,-73.5092015,Montréal-Est,https://www.centris.ca/fr/condo~a-vendre~montreal-le-sud-ouest/28502502?view=Summary
"122, Avenue Saint-Cyr, Montréal",Maison à vendre,895 000 $,14 pièces,,4 500 pc,9,3,5,6,4 chambres (1 au sous-sol),2 salles de bain et 1 salle d'eau,https://mspublic.centris.ca/media.ashx?id=ADDD250DC0CDD3BDDDDDDDDDDA&t=pi&w=640&h=480&sm=c,3,7,5,2,10,9,4,8,3,4,3,45.6327413,-73.4932556,Montréal-Est,https://www.centris.ca/fr/condo~a-vendre~montreal-le-sud-ouest/28502502?view=Summary
"11206, Rue Sainte-Julie, Montréal",Duplex à vendre,879 000 $,,,8 007 pc,9,2,5,6,,,https://mspublic.centris.ca/media.ashx?id=ADDD250DC0D9CE2DDDDDDDDDDC&t=pi&w=640&h=480&sm=c,8,6,5,2,10,10,4,8,3,4,2,45.6276295,-73.4980382,Montréal-Est,https://www.centris.ca/fr/condo~a-vendre~montreal-le-sud-ouest/28502502?view=Summary
"12, Avenue Easton, Montréal",Maison à vendre,939 000 $,12 pièces,,4 899 pc,10,3,4,7,4 chambres,2 salles de bain,https://mspublic.centris.ca/media.ashx?id=ADDD250DC0C0072DDDDDDDDDDC&t=pi&w=640&h=480&sm=c,6,4,6,2,5,6,5,6,2,5,9,45.45011927,-73.65061046,Montréal-Ouest,https://www.centris.ca/fr/condo~a-vendre~montreal-le-sud-ouest/28502502?view=Summary
"45, Avenue Westminster Sud, Montréal",Condo à vendre,591 100 $,5 pièces,1 028 pc,,10,3,4,7,1 chambre,1 salle de bain,https://mspublic.centris.ca/media.ashx?id=ADDD250DCC0F35ADDDDDDDDDDC&t=pi&w=640&h=480&sm=c,6,4,6,2,5,6,5,6,2,5,9,45.45158507,-73.64186038,Montréal-Ouest,https://www.centris.ca/fr/condo~a-vendre~montreal-le-sud-ouest/28502502?view=Summary
"16, Avenue Ballantyne Sud, Montréal",Maison à vendre,1 146 000 $,12 pièces,,4 400 pc,7,5,6,7,5 chambres,3 salles de bain,https://mspublic.centris.ca/media.ashx?id=ADDD250DCE6A0A2DDDDDDDDDDA&t=pi&w=640&h=480&sm=c,4,3,9,3,9,9,6,9,4,6,9,45.4523835,-73.64247923,Montréal-Ouest,https://www.centris.ca/fr/condo~a-vendre~montreal-le-sud-ouest/28502502?view=Summary
"45, Avenue Westminster Sud, Montréal",Condo à vendre,601 380 $,5 pièces,1 028 pc,,8,5,7,7,1 chambre,1 salle de bain,https://mspublic.centris.ca/media.ashx?id=ADDD250DCA62BBDDDDDDDDDDDC&t=pi&w=640&h=480&sm=c,7,3,8,3,9,9,6,9,4,6,10,45.45158507,-73.64186038,Montréal-Ouest,https://www.centris.ca/fr/condo~a-vendre~montreal-le-sud-ouest/28502502?view=Summary
"75, Avenue Strathearn Nord, Montréal",Maison à vendre,739 000 $,8 pièces,,3 375 pc,7,5,6,7,3 chambres,1 salle de bain et 1 salle d'eau,https://mspublic.centris.ca/media.ashx?id=ADDD250DCE3A9B8DDDDDDDDDD1&t=pi&w=640&h=480&sm=c,7,5,7,3,9,9,6,9,3,6,9,45.45296619,-73.64726216,Montréal-Ouest,https://www.centris.ca/fr/condo~a-vendre~montreal-le-sud-ouest/28502502?view=Summary
"45, Avenue Westminster Sud, Montréal",Condo à vendre,472 650 $,5 pièces,822 pc,,8,5,7,8,1 chambre,1 salle de bain,https://mspublic.centris.ca/media.ashx?id=ADDD250DCC06EECDDDDDDDDDDC&t=pi&w=640&h=480&sm=c,8,3,8,3,9,9,6,9,4,6,10,45.45158507,-73.64186038,Montréal-Ouest,https://www.centris.ca/fr/condo~a-vendre~montreal-le-sud-ouest/28502502?view=Summary
"45, Avenue Westminster Sud, Montréal",Condo à vendre,537 625 $,5 pièces,935 pc,,8,5,7,8,1 chambre,1 salle de bain,https://mspublic.centris.ca/media.ashx?id=ADDD250DCC0FBCDDDDDDDDDDDF&t=pi&w=640&h=480&sm=c,8,3,8,3,9,9,6,9,4,6,10,45.45158507,-73.64186038,Montréal-Ouest,https://www.centris.ca/fr/condo~a-vendre~montreal-le-sud-ouest/28502502?view=Summary
"155, Avenue Brock Sud, Montréal",Maison à vendre,3 750 000 $,13 pièces,,19 250 pc,8,5,6,7,5 chambres (1 au sous-sol),4 salles de bain et 1 salle d'eau,https://mspublic.centris.ca/media.ashx?id=ADDD250DCA98989DDDDDDDDDD1&t=pi&w=640&h=480&sm=c,9,2,7,3,9,7,6,7,4,5,9,45.45136766,-73.63774856,Montréal-Ouest,https://www.centris.ca/fr/condo~a-vendre~montreal-le-sud-ouest/28502502?view=Summary
"158, Avenue Westminster Nord, Montréal",Triplex à vendre,1 100 000 $,,2 448 pc,3 846 pc,8,5,7,7,,,https://mspublic.centris.ca/media.ashx?id=ADDD250DC070DA4DDDDDDDDDDB&t=pi&w=640&h=480&sm=c,8,5,7,3,9,9,6,8,3,6,8,45.45456501,-73.64995475,Montréal-Ouest,https://www.centris.ca/fr/condo~a-vendre~montreal-le-sud-ouest/28502502?view=Summary
"157, Avenue Strathearn Nord, Montréal",Maison à vendre,1 449 000 $,15 pièces,,4 499 pc,7,5,7,7,4 chambres,2 salles de bain et 1 salle d'eau,https://mspublic.centris.ca/media.ashx?id=ADDD250DC0EEA91DDDDDDDDDDF&t=pi&w=640&h=480&sm=c,10,5,7,3,9,9,6,8,3,5,8,45.45413793,-73.65030226,Montréal-Ouest,https://www.centris.ca/fr/condo~a-vendre~montreal-le-sud-ouest/28502502?view=Summary
"100, Croissant Roxton, Montréal",Duplex à vendre,869 000 $,,2 758 pc,4 578 pc,8,2,5,6,,,https://mspublic.centris.ca/media.ashx?id=ADDD250DCE17D3BDDDDDDDDDDD&t=pi&w=640&h=480&sm=c,7,4,5,2,5,9,4,5,3,4,8,45.45298485,-73.65726752,Montréal-Ouest,https://www.centris.ca/fr/condo~a-vendre~montreal-le-sud-ouest/28502502?view=Summary
"45, Avenue Westminster Sud, Montréal",Condo à vendre,811 300 $,5 pièces,1 324 pc,,8,5,7,8,2 chambres,2 salles de bain,https://mspublic.centris.ca/media.ashx?id=ADDD250DCC06277DDDDDDDDDD1&t=pi&w=640&h=480&sm=c,8,3,8,3,9,9,6,9,4,6,10,45.45158507,-73.64186038,Montréal-Ouest,https://www.centris.ca/fr/condo~a-vendre~montreal-le-sud-ouest/28502502?view=Summary
"Avenue Brock Sud, Montréal",Terrain à vendre,1 597 000 $,,,11 000 pc,10,4,4,8,,,https://mspublic.centris.ca/media.ashx?id=ADDD250DCA3C5ADDDDDDDDDDDC&t=pi&w=640&h=480&sm=c,0,2,7,3,9,8,6,7,3,6,8,45.4512881,-73.6349749,Côte-des-Neiges-Notre-Dame-de-Grâce,https://www.centris.ca/fr/condo~a-vendre~montreal-le-sud-ouest/28502502?view=Summary
"108, Promenade Sheraton, Montréal",Maison à vendre,999 000 $,11 pièces,,5 200 pc,9,2,4,6,4 chambres (1 au sous-sol),2 salles de bain,https://mspublic.centris.ca/media.ashx?id=ADDD250DCC6893CDDDDDDDDDD4&t=pi&w=640&h=480&sm=c,8,4,5,2,4,8,3,4,2,4,7,45.4530657,-73.6582775,Montréal-Ouest,https://www.centris.ca/fr/condo~a-vendre~montreal-le-sud-ouest/28502502?view=Summary
"45, Avenue Westminster Sud, Montréal",Condo à vendre,346 150 $,2 pièces,602 pc,,8,5,7,7,,1 salle de bain,https://mspublic.centris.ca/media.ashx?id=ADDD250DCC0FCD9DDDDDDDDDDF&t=pi&w=640&h=480&sm=c,7,3,8,3,9,9,6,9,4,6,10,45.45158507,-73.64186038,Montréal-Ouest,https://www.centris.ca/fr/condo~a-vendre~montreal-le-sud-ouest/28502502?view=Summary
"45, Avenue Westminster Sud, Montréal",Condo à vendre,408 250 $,5 pièces,710 pc,,8,5,7,8,1 chambre,1 salle de bain,https://mspublic.centris.ca/media.ashx?id=ADDD250DCC08975DDDDDDDDDD2&t=pi&w=640&h=480&sm=c,8,3,8,3,9,9,6,9,4,6,10,45.45158507,-73.64186038,Montréal-Ouest,https://www.centris.ca/fr/condo~a-vendre~montreal-le-sud-ouest/28502502?view=Summary
"36, Avenue Fenwick, Montréal",Maison à vendre,899 000 $,12 pièces,,4 112 pc,9,4,5,7,5 chambres,1 salle de bain et 1 salle d'eau,https://mspublic.centris.ca/media.ashx?id=ADDD250DC0FC315DDDDDDDDDDF&t=pi&w=640&h=480&sm=c,9,4,7,3,7,8,6,7,3,5,10,45.4494192,-73.645607,Montréal-Ouest,https://www.centris.ca/fr/condo~a-vendre~montreal-le-sud-ouest/28502502?view=Summary
"45, Avenue Westminster Sud, Montréal",Condo à vendre,480 870 $,4 pièces,822 pc,,8,5,7,7,1 chambre,1 salle de bain,https://mspublic.centris.ca/media.ashx?id=ADDD250DCA62BFEDDDDDDDDDDD&t=pi&w=640&h=480&sm=c,7,3,8,3,9,9,6,9,4,6,10,45.45158507,-73.64186038,Montréal-Ouest,https://www.centris.ca/fr/condo~a-vendre~montreal-le-sud-ouest/28502502?view=Summary
"45, Avenue Westminster Sud, Montréal",Condo à vendre,927 450 $,6 pièces,1 529 pc,,8,5,7,7,2 chambres,2 salles de bain,https://mspublic.centris.ca/media.ashx?id=ADDD250DCA62BE1DDDDDDDDDD4&t=pi&w=640&h=480&sm=c,7,3,8,3,9,9,6,9,4,6,10,45.45158507,-73.64186038,Montréal-Ouest,https://www.centris.ca/fr/condo~a-vendre~montreal-le-sud-ouest/28502502?view=Summary
"45, Avenue Westminster Sud, Montréal",Condo à vendre,824 540 $,6 pièces,1 324 pc,,8,5,7,7,2 chambres,1 salle de bain et 1 salle d'eau,https://mspublic.centris.ca/media.ashx?id=ADDD250DCA62BF2DDDDDDDDDDB&t=pi&w=640&h=480&sm=c,7,3,8,3,9,9,6,9,4,6,10,45.45158507,-73.64186038,Montréal-Ouest,https://www.centris.ca/fr/condo~a-vendre~montreal-le-sud-ouest/28502502?view=Summary
"45, Avenue Westminster Sud, Montréal",Condo à vendre,957 925 $,7 pièces,1 560 pc,,8,5,7,8,2 chambres,2 salles de bain,https://mspublic.centris.ca/media.ashx?id=ADDD250DCC0F66CDDDDDDDDDDE&t=pi&w=640&h=480&sm=c,8,3,8,3,9,9,6,9,4,6,10,45.45158507,-73.64186038,Montréal-Ouest,https://www.centris.ca/fr/condo~a-vendre~montreal-le-sud-ouest/28502502?view=Summary
"17, Avenue Ballantyne Sud, Montréal",Maison à vendre,1 325 000 $,12 pièces,,4 400 pc,7,5,6,7,4 chambres (1 au sous-sol),2 salles de bain et 1 salle d'eau,https://mspublic.centris.ca/media.ashx?id=ADDD250DC04DC95DDDDDDDDDDF&t=pi&w=640&h=480&sm=c,4,3,9,3,9,9,6,9,4,6,9,45.45254191,-73.64236559,Montréal-Ouest,https://www.centris.ca/fr/condo~a-vendre~montreal-le-sud-ouest/28502502?view=Summary
"316, Avenue Westminster Nord, Montréal",Maison à vendre,799 000 $,10 pièces,,2 125 pc,8,3,6,7,3 chambres,1 salle de bain et 1 salle d'eau,https://mspublic.centris.ca/media.ashx?id=ADDD250DCE56A77DDDDDDDDDDF&t=pi&w=640&h=480&sm=c,7,6,7,3,8,9,6,7,3,5,9,45.4561172,-73.65396485,Montréal-Ouest,https://www.centris.ca/fr/condo~a-vendre~montreal-le-sud-ouest/28502502?view=Summary
"45, Avenue Westminster Sud, Montréal",Condo à vendre,1 305 410 $,8 pièces,2 146 pc,,8,5,7,7,3 chambres,2 salles de bain et 1 salle d'eau,https://mspublic.centris.ca/media.ashx?id=ADDD250DCA62BFBDDDDDDDDDD2&t=pi&w=640&h=480&sm=c,7,3,8,3,9,9,6,9,4,6,10,45.45158507,-73.64186038,Montréal-Ouest,https://www.centris.ca/fr/condo~a-vendre~montreal-le-sud-ouest/28502502?view=Summary
"127, Promenade Sheraton, Montréal",Maison à vendre,899 000 $,14 pièces,,5 542 pc,8,2,4,6,5 chambres (1 au sous-sol),2 salles de bain et 1 salle d'eau,https://mspublic.centris.ca/media.ashx?id=ADDD250DC2D3B3EDDDDDDDDDD2&t=pi&w=640&h=480&sm=c,8,4,5,2,5,8,3,4,2,4,7,45.453336,-73.658458,Montréal-Ouest,https://www.centris.ca/fr/condo~a-vendre~montreal-le-sud-ouest/28502502?view=Summary
"181, Avenue Brock Sud, Montréal",Condo à vendre,529 000 $,7 pièces,933 pc,,9,4,5,8,2 chambres,2 salles de bain,https://mspublic.centris.ca/media.ashx?id=ADDD250DC0BCA98DDDDDDDDDD0&t=pi&w=640&h=480&sm=c,3,2,7,3,10,8,6,7,4,5,9,45.45096848,-73.63672346,Montréal-Ouest,https://www.centris.ca/fr/condo~a-vendre~montreal-le-sud-ouest/28502502?view=Summary
"316, Avenue Ballantyne Nord, Montréal",Maison à vendre,1 349 000 $,13 pièces,,4 400 pc,7,3,6,7,5 chambres (1 au sous-sol),2 salles de bain et 2 salles d'eau,https://mspublic.centris.ca/media.ashx?id=ADDD250DC0112ACDDDDDDDDDDF&t=pi&w=640&h=480&sm=c,8,6,7,3,8,9,5,7,3,5,9,45.45668069,-73.65357904,Montréal-Ouest,https://www.centris.ca/fr/condo~a-vendre~montreal-le-sud-ouest/28502502?view=Summary
"64, Avenue Ballantyne Nord, Montréal",Maison à vendre,1 995 000 $,14 pièces,,4 400 pc,7,5,6,7,4 chambres,2 salles de bain et 1 salle d'eau,https://mspublic.centris.ca/media.ashx?id=ADDD250DC2230EEDDDDDDDDDDD&t=pi&w=640&h=480&sm=c,3,5,8,3,9,9,6,9,3,6,9,45.45367114,-73.64577326,Montréal-Ouest,https://www.centris.ca/fr/condo~a-vendre~montreal-le-sud-ouest/28502502?view=Summary
"227, Avenue Brock Nord, Montréal",Maison à vendre,1 998 000 $,12 pièces,,4 400 pc,7,4,7,7,6 chambres (1 au sous-sol),4 salles de bain et 1 salle d'eau,https://mspublic.centris.ca/media.ashx?id=ADDD250DCECD4C4DDDDDDDDDDC&t=pi&w=640&h=480&sm=c,10,6,7,3,9,9,6,8,2,5,8,45.4565896,-73.65091338,Montréal-Ouest,https://www.centris.ca/fr/condo~a-vendre~montreal-le-sud-ouest/28502502?view=Summary
"7815, Croissant du Beau-Bois, Montréal",Maison à vendre,2 499 000 $,18 pièces,,28 109 pc,9,2,3,10,4 chambres (1 au sous-sol),3 salles de bain et 1 salle d'eau,https://mspublic.centris.ca/media.ashx?id=ADDD250DC098BEFDDDDDDDDDD1&t=pi&w=640&h=480&sm=c,9,3,4,1,2,6,2,1,1,4,3,45.51643511,-73.73085661,Ahuntsic-Cartierville,https://www.centris.ca/fr/condo~a-vendre~montreal-le-sud-ouest/28502502?view=Summary
"125, Rue Chabanel Ouest, Montréal",Condo à vendre,419 000 $,5 pièces,1 272 pc,,9,5,8,10,2 chambres,1 salle de bain,https://mspublic.centris.ca/media.ashx?id=ADDD250DCA9FD8ADDDDDDDDDD2&t=pi&w=640&h=480&sm=c,6,5,9,4,10,9,10,9,4,7,9,45.5412739,-73.6531853,Ahuntsic-Cartierville,https://www.centris.ca/fr/condo~a-vendre~montreal-le-sud-ouest/28502502?view=Summary
"10155, Avenue Durham, Montréal",Duplex à vendre,1 049 000 $,,,5 053 pc,6,5,9,10,,,https://mspublic.centris.ca/media.ashx?id=ADDD250DC0AF9E0DDDDDDDDDDF&t=pi&w=640&h=480&sm=c,8,7,9,4,10,10,8,8,4,6,8,45.55504982,-73.65848445,Ahuntsic-Cartierville,https://www.centris.ca/fr/condo~a-vendre~montreal-le-sud-ouest/28502502?view=Summary
"10475, Place Fleury, Montréal",Triplex à vendre,969 000 $,,,4 160 pc,7,3,7,9,,,https://mspublic.centris.ca/media.ashx?id=ADDD250DCE84752DDDDDDDDDDC&t=pi&w=640&h=480&sm=c,9,5,8,4,10,9,7,7,3,6,5,45.5418476,-73.6722525,Ahuntsic-Cartierville,https://www.centris.ca/fr/condo~a-vendre~montreal-le-sud-ouest/28502502?view=Summary
"10856, Rue Basile-Routhier, Montréal",Condo à vendre,370 000 $,4 pièces,453 pc,,8,6,8,10,1 chambre,1 salle de bain,https://mspublic.centris.ca/media.ashx?id=ADDD250DCEE8822DDDDDDDDDD0&t=pi&w=640&h=480&sm=c,4,7,9,4,10,8,7,9,4,6,9,45.5571076,-73.6716057,Ahuntsic-Cartierville,https://www.centris.ca/fr/condo~a-vendre~montreal-le-sud-ouest/28502502?view=Summary
"10050, Place de l'Acadie, Montréal",Condo à vendre,348 000 $,5 pièces,546 pc,,9,3,5,10,1 chambre,1 salle de bain,https://mspublic.centris.ca/media.ashx?id=ADDD250DCCB0949DDDDDDDDDDC&t=pi&w=640&h=480&sm=c,0,3,8,4,7,8,7,7,2,6,8,45.5333343,-73.6806805,Ahuntsic-Cartierville,https://www.centris.ca/fr/condo~a-vendre~montreal-le-sud-ouest/28502502?view=Summary
"11785, Rue Grenet, Montréal",Triplex à vendre,799 000 $,,1 301 pc,3 567 pc,7,6,7,10,,,https://mspublic.centris.ca/media.ashx?id=ADDD250DCA68CC4DDDDDDDDDD4&t=pi&w=640&h=480&sm=c,4,4,8,3,10,9,5,8,3,5,7,45.5247961,-73.7082856,Ahuntsic-Cartierville,https://www.centris.ca/fr/condo~a-vendre~montreal-le-sud-ouest/28502502?view=Summary
"9950, Place de l'Acadie, Montréal",Condo à vendre,479 000 $,8 pièces,962 pc,,9,3,7,10,3 chambres,1 salle de bain et 1 salle d'eau,https://mspublic.centris.ca/media.ashx?id=ADDD250DCA90881DDDDDDDDDD2&t=pi&w=640&h=480&sm=c,4,3,8,4,7,9,7,7,2,6,8,45.5334266,-73.6800847,Ahuntsic-Cartierville,https://www.centris.ca/fr/condo~a-vendre~montreal-le-sud-ouest/28502502?view=Summary
"8655, Rue Joseph-Quintal, Montréal",Condo à vendre,489 000 $,5 pièces,1 157 pc,,7,5,9,10,2 chambres (1 au sous-sol),1 salle de bain et 1 salle d'eau,https://mspublic.centris.ca/media.ashx?id=ADDD250DCA6687EDDDDDDDDDDB&t=pi&w=640&h=480&sm=c,7,7,8,4,8,7,8,9,4,7,8,45.55431506,-73.62975361,Ahuntsic-Cartierville,https://www.centris.ca/fr/condo~a-vendre~montreal-le-sud-ouest/28502502?view=Summary
"920, Rue Arthur-Lismer, Montréal",Quadruplex à vendre,1 589 000 $,,,4 941 pc,8,4,6,9,,,https://mspublic.centris.ca/media.ashx?id=ADDD250DCAF5C6CDDDDDDDDDD2&t=pi&w=640&h=480&sm=c,4,3,8,4,6,9,8,8,3,6,2,45.538252,-73.6679448,Ahuntsic-Cartierville,https://www.centris.ca/fr/condo~a-vendre~montreal-le-sud-ouest/28502502?view=Summary
"10111, Rue De La Roche, Montréal",Maison à vendre,799 000 $,12 pièces,,5 029 pc,6,5,10,10,4 chambres,3 salles de bain et 2 salles d'eau,https://mspublic.centris.ca/media.ashx?id=ADDD250DC0E8F8BDDDDDDDDDDD&t=pi&w=640&h=480&sm=c,8,8,9,5,10,10,8,9,4,6,8,45.55832889,-73.65574067,Ahuntsic-Cartierville,https://www.centris.ca/fr/condo~a-vendre~montreal-le-sud-ouest/28502502?view=Summary
"12085, Rue Lachapelle, Montréal",Maison à vendre,649 999 $,9 pièces,,5 253 pc,8,5,7,10,3 chambres,1 salle de bain,https://mspublic.centris.ca/media.ashx?id=ADDD250DC0777A8DDDDDDDDDDC&t=pi&w=640&h=480&sm=c,6,4,8,4,9,8,5,9,4,6,7,45.52810307,-73.71669127,Ahuntsic-Cartierville,https://www.centris.ca/fr/condo~a-vendre~montreal-le-sud-ouest/28502502?view=Summary
"850, boulevard Henri-Bourassa Est, Montréal",Triplex à vendre,949 900 $,,,2 993 pc,6,5,8,10,,,https://mspublic.centris.ca/media.ashx?id=ADDD250DC2B4304DDDDDDDDDDF&t=pi&w=640&h=480&sm=c,4,7,9,4,9,9,7,9,4,6,9,45.55863903,-73.66666639,Ahuntsic-Cartierville,https://www.centris.ca/fr/condo~a-vendre~montreal-le-sud-ouest/28502502?view=Summary
"9980, Rue de Lille, Montréal",Duplex à vendre,849 000 $,,,2 175 pc,6,3,9,8,,,https://mspublic.centris.ca/media.ashx?id=ADDD250DCECE59CDDDDDDDDDDC&t=pi&w=640&h=480&sm=c,8,6,8,4,10,9,6,9,4,6,8,45.57244334,-73.64451416,Ahuntsic-Cartierville,https://www.centris.ca/fr/condo~a-vendre~montreal-le-sud-ouest/28502502?view=Summary
"10687, Avenue Larose, Montréal",Condo à vendre,289 000 $,4 pièces,666 pc,,6,3,8,10,1 chambre,1 salle de bain,https://mspublic.centris.ca/media.ashx?id=ADDD250DCE84FB9DDDDDDDDDDA&t=pi&w=640&h=480&sm=c,4,6,8,4,9,9,6,8,4,6,7,45.580492,-73.65040191,Ahuntsic-Cartierville,https://www.centris.ca/fr/condo~a-vendre~montreal-le-sud-ouest/28502502?view=Summary
"1050, Place De La Colombière, Montréal",Maison à vendre,849 000 $,9 pièces,,3 568 pc,8,6,7,10,4 chambres,2 salles de bain et 2 salles d'eau,https://mspublic.centris.ca/media.ashx?id=ADDD250DC410FFEDDDDDDDDDDD&t=pi&w=640&h=480&sm=c,7,9,8,4,9,8,8,8,3,6,8,45.55622412,-73.64545137,Ahuntsic-Cartierville,https://www.centris.ca/fr/condo~a-vendre~montreal-le-sud-ouest/28502502?view=Summary
"8804, Rue Lajeunesse, Montréal",Condo à vendre,405 000 $,7 pièces,932 pc,,8,6,10,10,2 chambres,1 salle de bain,https://mspublic.centris.ca/media.ashx?id=ADDD250DC07A6B0DDDDDDDDDDA&t=pi&w=640&h=480&sm=c,5,6,10,5,10,9,8,9,4,7,9,45.54686853,-73.63977417,Ahuntsic-Cartierville,https://www.centris.ca/fr/condo~a-vendre~montreal-le-sud-ouest/28502502?view=Summary
"10449, Rue Rancourt, Montréal",Triplex à vendre,1 375 000 $,,,,6,3,10,8,,,https://mspublic.centris.ca/media.ashx?id=ADDD250DC027B1ADDDDDDDDDD1&t=pi&w=640&h=480&sm=c,8,6,7,4,10,10,6,9,4,6,6,45.57458892,-73.65111264,Ahuntsic-Cartierville,https://www.centris.ca/fr/condo~a-vendre~montreal-le-sud-ouest/28502502?view=Summary
"9950, Place de l'Acadie, Montréal",Condo à vendre,397 500 $,6 pièces,799 pc,,7,3,7,9,2 chambres,1 salle de bain,https://mspublic.centris.ca/media.ashx?id=ADDD250DC0E9FE8DDDDDDDDDDB&t=pi&w=640&h=480&sm=c,8,4,7,4,6,8,7,8,2,6,5,45.5334266,-73.6800847,Ahuntsic-Cartierville,https://www.centris.ca/fr/condo~a-vendre~montreal-le-sud-ouest/28502502?view=Summary
"12315, Place Bellefleur, Montréal",Maison à vendre,893 000 $,15 pièces,,3 647 pc,9,3,6,8,4 chambres,1 salle de bain et 2 salles d'eau,https://mspublic.centris.ca/media.ashx?id=ADDD250DCAC84F5DDDDDDDDDDA&t=pi&w=640&h=480&sm=c,9,6,7,3,9,9,7,5,3,5,5,45.5475666,-73.6831009,Ahuntsic-Cartierville,https://www.centris.ca/fr/condo~a-vendre~montreal-le-sud-ouest/28502502?view=Summary
"12320, Rue Lachapelle, Montréal",Condo à vendre,329 000 $,8 pièces,625 pc,,8,6,10,10,1 chambre,1 salle de bain,https://mspublic.centris.ca/media.ashx?id=ADDD250DCE08548DDDDDDDDDDA&t=pi&w=640&h=480&sm=c,6,5,9,4,10,10,5,8,4,6,9,45.53116872,-73.72211197,Ahuntsic-Cartierville,https://www.centris.ca/fr/condo~a-vendre~montreal-le-sud-ouest/28502502?view=Summary
"10380, Avenue Vianney, Montréal",Triplex à vendre,799 000 $,,,4 036 pc,6,3,9,10,,,https://mspublic.centris.ca/media.ashx?id=ADDD250DC0B0087DDDDDDDDDD4&t=pi&w=640&h=480&sm=c,8,5,7,4,10,10,6,9,4,6,8,45.57792748,-73.64687906,Ahuntsic-Cartierville,https://www.centris.ca/fr/condo~a-vendre~montreal-le-sud-ouest/28502502?view=Summary
"9950, Place de l'Acadie, Montréal",Condo à vendre,385 000 $,5 pièces,723 pc,,9,3,7,10,2 chambres,1 salle de bain,https://mspublic.centris.ca/media.ashx?id=ADDD250DCC7FA53DDDDDDDDDDA&t=pi&w=640&h=480&sm=c,4,3,8,4,7,9,7,7,2,6,8,45.5334266,-73.6800847,Ahuntsic-Cartierville,https://www.centris.ca/fr/condo~a-vendre~montreal-le-sud-ouest/28502502?view=Summary
"12038, Rue Ranger, Montréal",Maison à vendre,589 000 $,7 pièces,,5 253 pc,7,5,7,10,3 chambres (1 au sous-sol),1 salle de bain,https://mspublic.centris.ca/media.ashx?id=ADDD250DC0B77FBDDDDDDDDDD0&t=pi&w=640&h=480&sm=c,6,4,8,3,9,9,5,8,3,5,7,45.52776304,-73.71491104,Ahuntsic-Cartierville,https://www.centris.ca/fr/condo~a-vendre~montreal-le-sud-ouest/28502502?view=Summary
"10366, Rue Meilleur, Montréal",Maison à vendre,869 000 $,8 pièces,,3 600 pc,7,4,8,9,4 chambres (1 au sous-sol),1 salle de bain et 1 salle d'eau,https://mspublic.centris.ca/media.ashx?id=ADDD250DC087AC3DDDDDDDDDDD&t=pi&w=640&h=480&sm=c,8,6,9,4,10,10,8,7,3,6,5,45.54173888,-73.67029421,Ahuntsic-Cartierville,https://www.centris.ca/fr/condo~a-vendre~montreal-le-sud-ouest/28502502?view=Summary
"3965, Place Colbert, Montréal",Maison à vendre,699 000 $,8 pièces,,3 246 pc,7,4,8,9,4 chambres,2 salles de bain et 1 salle d'eau,https://mspublic.centris.ca/media.ashx?id=ADDD250DCABD14FDDDDDDDDDD2&t=pi&w=640&h=480&sm=c,8,6,9,4,10,10,8,7,3,6,5,45.53830018,-73.70812615,Ahuntsic-Cartierville,https://www.centris.ca/fr/condo~a-vendre~montreal-le-sud-ouest/28502502?view=Summary
"1661, Avenue Camille-Paquet, Montréal",Quadruplex à vendre,1 050 000 $,,,4 187 pc,6,3,8,10,,,https://mspublic.centris.ca/media.ashx?id=ADDD250DC08D154DDDDDDDDDDE&t=pi&w=640&h=480&sm=c,8,6,8,4,10,9,7,9,3,6,9,45.5665728,-73.65903386,Ahuntsic-Cartierville,https://www.centris.ca/fr/condo~a-vendre~montreal-le-sud-ouest/28502502?view=Summary
"10505, Rue Chambord, Montréal",Triplex à vendre,969 000 $,,2 344 pc,2 496 pc,6,5,8,10,,,https://mspublic.centris.ca/media.ashx?id=ADDD250DC07982EDDDDDDDDDDA&t=pi&w=640&h=480&sm=c,4,7,9,4,9,9,7,8,4,6,10,45.5607639,-73.661377,Ahuntsic-Cartierville,https://www.centris.ca/fr/condo~a-vendre~montreal-le-sud-ouest/28502502?view=Summary
"9960, Avenue Christophe-Colomb, Montréal",Triplex à vendre,1 298 000 $,,,5 608 pc,8,4,9,10,,,https://mspublic.centris.ca/media.ashx?id=ADDD250DCA39DC6DDDDDDDDDD0&t=pi&w=640&h=480&sm=c,4,10,9,4,10,10,8,9,4,6,8,45.55993963,-73.65366494,Ahuntsic-Cartierville,https://www.centris.ca/fr/condo~a-vendre~montreal-le-sud-ouest/28502502?view=Summary
"7845, Avenue Henri-Béland, Montréal",Maison à vendre,2 795 000 $,16 pièces,,5 610 pc,9,2,4,8,4 chambres,3 salles de bain et 1 salle d'eau,https://mspublic.centris.ca/media.ashx?id=ADDD250DCABBB1BDDDDDDDDDDA&t=pi&w=640&h=480&sm=c,10,5,5,2,5,8,4,3,1,4,6,45.5242669,-73.7399167,Ahuntsic-Cartierville,https://www.centris.ca/fr/condo~a-vendre~montreal-le-sud-ouest/28502502?view=Summary
"12175, Avenue du Bois-de-Boulogne, Montréal",Triplex à vendre,1 288 000 $,,,,9,5,6,8,,,https://mspublic.centris.ca/media.ashx?id=ADDD250DCE9DB5DDDDDDDDDDDF&t=pi&w=640&h=480&sm=c,6,7,7,3,9,10,6,7,3,5,8,45.54417291,-73.69850208,Ahuntsic-Cartierville,https://www.centris.ca/fr/condo~a-vendre~montreal-le-sud-ouest/28502502?view=Summary
"9350, Rue Foucher, Montréal",Maison à vendre,1 435 000 $,8 pièces,,2 430 pc,6,5,10,10,4 chambres (1 au sous-sol),2 salles de bain et 1 salle d'eau,https://mspublic.centris.ca/media.ashx?id=ADDD250DCC6DDC4DDDDDDDDDDF&t=pi&w=640&h=480&sm=c,9,8,9,5,9,10,8,9,4,7,9,45.55066951,-73.64849692,Ahuntsic-Cartierville,https://www.centris.ca/fr/condo~a-vendre~montreal-le-sud-ouest/28502502?view=Summary
"10425, Rue Saint-Denis, Montréal",Duplex à vendre,1 099 000 $,,,5 747 pc,6,6,8,10,,,https://mspublic.centris.ca/media.ashx?id=ADDD250DC02F4B7DDDDDDDDDDE&t=pi&w=640&h=480&sm=c,8,7,9,4,9,9,7,8,4,6,9,45.55247662,-73.66453835,Ahuntsic-Cartierville,https://www.centris.ca/fr/condo~a-vendre~montreal-le-sud-ouest/28502502?view=Summary
"12280, Rue Camille, Montréal",Maison à vendre,1 500 000 $,12 pièces,,11 927 pc,10,4,3,9,4 chambres,3 salles de bain et 1 salle d'eau,https://mspublic.centris.ca/media.ashx?id=ADDD250DCEA2E5DDDDDDDDDDD0&t=pi&w=640&h=480&sm=c,8,6,5,1,3,8,4,2,0,4,8,45.4447544,-73.6451865,Lachine,https://www.centris.ca/fr/condo~a-vendre~montreal-le-sud-ouest/28502502?view=Summary
"10888, Rue Berri, Montréal",Maison à vendre,850 000 $,8 pièces,,3 646 pc,6,6,7,10,4 chambres,1 salle de bain et 1 salle d'eau,https://mspublic.centris.ca/media.ashx?id=ADDD250DC0961D1DDDDDDDDDDA&t=pi&w=640&h=480&sm=c,6,7,9,4,10,8,7,9,4,6,9,45.55566627,-73.673024,Ahuntsic-Cartierville,https://www.centris.ca/fr/condo~a-vendre~montreal-le-sud-ouest/28502502?view=Summary
"10621, Rue De La Roche, Montréal",Quadruplex à vendre,950 000 $,,,3 650 pc,6,6,7,10,,,https://mspublic.centris.ca/media.ashx?id=ADDD250DCAFA079DDDDDDDDDD4&t=pi&w=640&h=480&sm=c,6,7,9,4,10,8,7,9,4,6,9,45.56065236,-73.66366222,Ahuntsic-Cartierville,https://www.centris.ca/fr/condo~a-vendre~montreal-le-sud-ouest/28502502?view=Summary
"9730, Avenue Larose, Montréal",Duplex à vendre,775 000 $,,,2 625 pc,7,5,8,8,,,https://mspublic.centris.ca/media.ashx?id=ADDD250DCCBC5A7DDDDDDDDDDF&t=pi&w=640&h=480&sm=c,7,5,8,4,10,10,7,8,3,6,8,45.57538919,-73.63878475,Ahuntsic-Cartierville,https://www.centris.ca/fr/condo~a-vendre~montreal-le-sud-ouest/28502502?view=Summary
"8, Avenue du Ruisseau, Montréal",Duplex à vendre,718 000 $,,,7 075 pc,10,4,3,8,,,https://mspublic.centris.ca/media.ashx?id=ADDD250DCEF1BB4DDDDDDDDDDD&t=pi&w=640&h=480&sm=c,7,6,5,1,3,8,4,2,0,4,8,45.51056875,-73.75426967,Ahuntsic-Cartierville,https://www.centris.ca/fr/condo~a-vendre~montreal-le-sud-ouest/28502502?view=Summary
"10858, Rue Basile-Routhier, Montréal",Maison à vendre,850 000 $,10 pièces,,,6,6,8,10,3 chambres (1 au sous-sol),3 salles de bain et 1 salle d'eau,https://mspublic.centris.ca/media.ashx?id=ADDD250DCC883C3DDDDDDDDDDF&t=pi&w=640&h=480&sm=c,3,7,9,4,10,8,7,9,5,6,10,45.5571076,-73.6716057,Ahuntsic-Cartierville,https://www.centris.ca/fr/condo~a-vendre~montreal-le-sud-ouest/28502502?view=Summary
"10100, Rue Paul-Comtois, Montréal",Condo à vendre,399 900 $,5 pièces,1 082 pc,,7,3,7,9,2 chambres,1 salle de bain,https://mspublic.centris.ca/media.ashx?id=ADDD250DC0C9041DDDDDDDDDDA&t=pi&w=640&h=480&sm=c,8,3,8,4,6,9,7,8,2,6,3,45.5371867,-73.668714,Ahuntsic-Cartierville,https://www.centris.ca/fr/condo~a-vendre~montreal-le-sud-ouest/28502502?view=Summary
"12188, Avenue Henri-Beau, Montréal",Maison à vendre,2 300 000 $,12 pièces,,6 755 pc,10,2,3,9,5 chambres (1 au sous-sol),2 salles de bain et 2 salles d'eau,https://mspublic.centris.ca/media.ashx?id=ADDD250DCE3AE0FDDDDDDDDDDF&t=pi&w=640&h=480&sm=c,9,4,4,1,1,8,2,1,0,3,8,45.51124902,-73.74763925,Ahuntsic-Cartierville,https://www.centris.ca/fr/condo~a-vendre~montreal-le-sud-ouest/28502502?view=Summary
"8529, Rue Joseph-Quintal, Montréal",Condo à vendre,459 000 $,7 pièces,918 pc,,7,5,9,10,2 chambres,1 salle de bain,https://mspublic.centris.ca/media.ashx?id=ADDD250DC045FA2DDDDDDDDDDE&t=pi&w=640&h=480&sm=c,7,7,8,4,8,7,8,9,4,7,8,45.55357382,-73.62806267,Ahuntsic-Cartierville,https://www.centris.ca/fr/condo~a-vendre~montreal-le-sud-ouest/28502502?view=Summary
"10440, Avenue Vianney, Montréal",Duplex à vendre,779 000 $,,2 124 pc,4 055 pc,6,3,9,10,,,https://mspublic.centris.ca/media.ashx?id=ADDD250DC0ED74ADDDDDDDDDDA&t=pi&w=640&h=480&sm=c,8,5,7,4,10,10,6,9,4,6,8,45.5783639,-73.64793478,Ahuntsic-Cartierville,https://www.centris.ca/fr/condo~a-vendre~montreal-le-sud-ouest/28502502?view=Summary
"10200, boulevard de l'Acadie, Montréal",Condo à vendre,389 000 $,7 pièces,862 pc,,9,3,7,9,2 chambres,2 salles de bain,https://mspublic.centris.ca/media.ashx?id=ADDD250DCE23542DDDDDDDDDD1&t=pi&w=640&h=480&sm=c,2,3,8,4,8,10,8,8,2,6,6,45.5434866,-73.7030537,Ahuntsic-Cartierville,https://www.centris.ca/fr/condo~a-vendre~montreal-le-sud-ouest/28502502?view=Summary
"10856, Rue Basile-Routhier, Montréal",Condo à vendre,519 000 $,8 pièces,795 pc,,6,6,8,10,2 chambres,2 salles de bain,https://mspublic.centris.ca/media.ashx?id=ADDD250DCA81BD8DDDDDDDDDDA&t=pi&w=640&h=480&sm=c,3,7,9,4,10,8,7,9,5,6,10,45.5571076,-73.6716057,Ahuntsic-Cartierville,https://www.centris.ca/fr/condo~a-vendre~montreal-le-sud-ouest/28502502?view=Summary
"8855, Rue Meunier, Montréal",Maison à vendre,800 000 $,4 pièces,,,7,6,7,10,2 chambres,1 salle de bain,https://mspublic.centris.ca/media.ashx?id=ADDD250DC070EA9DDDDDDDDDDF&t=pi&w=640&h=480&sm=c,0,4,9,5,9,10,9,9,4,7,8,45.53870511,-73.64640313,Ahuntsic-Cartierville,https://www.centris.ca/fr/condo~a-vendre~montreal-le-sud-ouest/28502502?view=Summary
"9935, Avenue Hamelin, Montréal",Triplex à vendre,779 000 $,,,2 025 pc,6,3,9,8,,,https://mspublic.centris.ca/media.ashx?id=ADDD250DCE208B2DDDDDDDDDDD&t=pi&w=640&h=480&sm=c,8,7,8,4,9,9,7,9,4,6,9,45.56824008,-73.64757434,Ahuntsic-Cartierville,https://www.centris.ca/fr/condo~a-vendre~montreal-le-sud-ouest/28502502?view=Summary
"9758, Avenue du Sacré-Coeur, Montréal",Duplex à vendre,799 000 $,,,2 542 pc,7,4,9,10,,,https://mspublic.centris.ca/media.ashx?id=ADDD250DC08D9C0DDDDDDDDDDD&t=pi&w=640&h=480&sm=c,6,9,9,4,10,9,7,9,4,6,8,45.55830092,-73.65089959,Ahuntsic-Cartierville,https://www.centris.ca/fr/condo~a-vendre~montreal-le-sud-ouest/28502502?view=Summary
"8520, Rue Raymond-Pelletier, Montréal",Condo à vendre,384 500 $,5 pièces,739 pc,,7,5,9,10,2 chambres,1 salle de bain,https://mspublic.centris.ca/media.ashx?id=ADDD250DCCEC242DDDDDDDDDDB&t=pi&w=640&h=480&sm=c,4,8,8,4,8,8,8,8,4,7,9,45.55182983,-73.6311345,Ahuntsic-Cartierville,https://www.centris.ca/fr/condo~a-vendre~montreal-le-sud-ouest/28502502?view=Summary
"7775, Rue De Villebon, Montréal",Maison à vendre,1 999 000 $,11 pièces,,7 072 pc,8,3,5,8,5 chambres (2 au sous-sol),2 salles de bain et 1 salle d'eau,https://mspublic.centris.ca/media.ashx?id=ADDD250D2678416DDDDDDDDDDF&t=pi&w=640&h=480&sm=c,5,5,6,2,6,9,5,4,2,4,7,45.5226766,-73.73672605,Ahuntsic-Cartierville,https://www.centris.ca/fr/condo~a-vendre~montreal-le-sud-ouest/28502502?view=Summary
"12210, Rue Saint-Évariste, Montréal",Maison à vendre,979 000 $,16 pièces,,3 406 pc,9,5,6,10,4 chambres (1 au sous-sol),2 salles de bain et 1 salle d'eau,https://mspublic.centris.ca/media.ashx?id=ADDD250DC07979DDDDDDDDDDDB&t=pi&w=640&h=480&sm=c,5,4,7,3,9,9,5,5,2,5,9,45.5339339,-73.71247039,Ahuntsic-Cartierville,https://www.centris.ca/fr/condo~a-vendre~montreal-le-sud-ouest/28502502?view=Summary
"125, Rue Chabanel Ouest, Montréal",Condo à vendre,440 000 $,3 pièces,771 pc,,8,5,7,10,1 chambre,1 salle de bain,https://mspublic.centris.ca/media.ashx?id=ADDD250DCABBE2ADDDDDDDDDD2&t=pi&w=640&h=480&sm=c,6,5,9,4,10,9,9,9,4,6,9,45.5412739,-73.6531853,Ahuntsic-Cartierville,https://www.centris.ca/fr/condo~a-vendre~montreal-le-sud-ouest/28502502?view=Summary
"10120, Rue Saint-Hubert, Montréal",Triplex à vendre,896 000 $,,,2 675 pc,7,5,10,10,,,https://mspublic.centris.ca/media.ashx?id=ADDD250DC0F1DFADDDDDDDDDDF&t=pi&w=640&h=480&sm=c,6,7,9,5,9,10,8,9,4,6,8,45.55543667,-73.65757118,Ahuntsic-Cartierville,https://www.centris.ca/fr/condo~a-vendre~montreal-le-sud-ouest/28502502?view=Summary
"12112, Rue De Saint-Réal, Montréal",Maison à vendre,900 000 $,14 pièces,,1 892 pc,8,5,6,8,3 chambres,3 salles de bain et 1 salle d'eau,https://mspublic.centris.ca/media.ashx?id=ADDD250DCA41F17DDDDDDDDDDE&t=pi&w=640&h=480&sm=c,5,7,7,3,9,10,6,7,3,5,8,45.54419431,-73.69734645,Ahuntsic-Cartierville,https://www.centris.ca/fr/condo~a-vendre~montreal-le-sud-ouest/28502502?view=Summary
"9880, Rue Saint-Urbain, Montréal",Duplex à vendre,749 000 $,,,3 000 pc,7,5,8,10,,,https://mspublic.centris.ca/media.ashx?id=ADDD250DC07CEADDDDDDDDDDDB&t=pi&w=640&h=480&sm=c,8,6,9,4,10,9,9,8,4,6,9,45.54511747,-73.66075064,Ahuntsic-Cartierville,https://www.centris.ca/fr/condo~a-vendre~montreal-le-sud-ouest/28502502?view=Summary
"11980, Rue Pasteur, Montréal",Maison à vendre,995 000 $,12 pièces,,8 058 pc,7,6,7,10,3 chambres (1 au sous-sol),2 salles de bain et 1 salle d'eau,https://mspublic.centris.ca/media.ashx?id=ADDD250DC0C3595DDDDDDDDDDB&t=pi&w=640&h=480&sm=c,6,5,7,4,10,9,7,8,4,5,9,45.53957768,-73.69646414,Ahuntsic-Cartierville,https://www.centris.ca/fr/condo~a-vendre~montreal-le-sud-ouest/28502502?view=Summary
"11856, boulevard de l'Acadie, Montréal",Maison à vendre,1 199 000 $,14 pièces,,6 480 pc,7,5,7,9,4 chambres,3 salles de bain et 1 salle d'eau,https://mspublic.centris.ca/media.ashx?id=ADDD250DCE4A59DDDDDDDDDDDF&t=pi&w=640&h=480&sm=c,4,5,8,3,10,10,6,8,4,5,10,45.5392697,-73.6924158,Ahuntsic-Cartierville,https://www.centris.ca/fr/condo~a-vendre~montreal-le-sud-ouest/28502502?view=Summary
"12228, Rue Pasteur, Montréal",Quintuplex à vendre,2 950 000 $,,,12 418 pc,7,5,7,10,,,https://mspublic.centris.ca/media.ashx?id=ADDD250DC259310DDDDDDDDDD0&t=pi&w=640&h=480&sm=c,4,6,7,3,9,9,6,8,4,5,8,45.54224005,-73.70106586,Ahuntsic-Cartierville,https://www.centris.ca/fr/condo~a-vendre~montreal-le-sud-ouest/28502502?view=Summary
"12064, boulevard O'Brien, Montréal",Maison à vendre,648 000 $,9 pièces,,4 994 pc,10,5,7,10,3 chambres (1 au sous-sol),2 salles de bain,https://mspublic.centris.ca/media.ashx?id=ADDD250DCAF1E11DDDDDDDDDDD&t=pi&w=640&h=480&sm=c,7,2,7,3,10,9,6,7,2,5,7,45.53312545,-73.70830509,Ahuntsic-Cartierville,https://www.centris.ca/fr/condo~a-vendre~montreal-le-sud-ouest/28502502?view=Summary
"8500, Rue Raymond-Pelletier, Montréal",Condo à vendre,310 000 $,3 pièces,581 pc,,7,5,9,10,1 chambre,1 salle de bain,https://mspublic.centris.ca/media.ashx?id=ADDD250DC04B0E8DDDDDDDDDD2&t=pi&w=640&h=480&sm=c,4,8,8,4,8,8,8,8,4,7,9,45.5517307,-73.6306121,Ahuntsic-Cartierville,https://www.centris.ca/fr/condo~a-vendre~montreal-le-sud-ouest/28502502?view=Summary
"1570, Rue Louis-Carrier, Montréal",Condo à vendre,260 000 $,5 pièces,,,7,3,7,9,1 chambre,1 salle de bain,https://mspublic.centris.ca/media.ashx?id=ADDD250DC0CF044DDDDDDDDDDB&t=pi&w=640&h=480&sm=c,9,3,8,4,7,9,7,7,2,6,6,45.5373023,-73.6769802,Ahuntsic-Cartierville,https://www.centris.ca/fr/condo~a-vendre~montreal-le-sud-ouest/28502502?view=Summary
"9675, Avenue Hamelin, Montréal",Triplex à vendre,1 295 000 $,,3 401 pc,3 904 pc,6,3,9,8,,,https://mspublic.centris.ca/media.ashx?id=ADDD250DCA33E36DDDDDDDDDDD&t=pi&w=640&h=480&sm=c,7,7,8,4,10,9,7,9,3,6,9,45.56713934,-73.64493619,Ahuntsic-Cartierville,https://www.centris.ca/fr/condo~a-vendre~montreal-le-sud-ouest/28502502?view=Summary
"8580, Rue Raymond-Pelletier, Montréal",Condo à vendre,549 000 $,5 pièces,1 257 pc,,7,5,9,10,2 chambres,2 salles de bain,https://mspublic.centris.ca/media.ashx?id=ADDD250DC0ECF8BDDDDDDDDDD0&t=pi&w=640&h=480&sm=c,4,8,8,4,8,8,8,8,4,7,9,45.55303981,-73.63245927,Ahuntsic-Cartierville,https://www.centris.ca/fr/condo~a-vendre~montreal-le-sud-ouest/28502502?view=Summary
"10150, Place de l'Acadie, Montréal",Condo à vendre,449 000 $,5 pièces,785 pc,,10,3,5,9,2 chambres,1 salle de bain,https://mspublic.centris.ca/media.ashx?id=ADDD250DC079A40DDDDDDDDDDA&t=pi&w=640&h=480&sm=c,0,3,8,3,6,8,7,6,2,6,8,45.5329246,-73.6809433,Ahuntsic-Cartierville,https://www.centris.ca/fr/condo~a-vendre~montreal-le-sud-ouest/28502502?view=Summary
"12320, Rue Lachapelle, Montréal",Condo à vendre,320 000 $,5 pièces,830 pc,,8,6,10,10,2 chambres,1 salle de bain,https://mspublic.centris.ca/media.ashx?id=ADDD250DC09D615DDDDDDDDDDA&t=pi&w=640&h=480&sm=c,6,5,9,4,10,10,5,8,4,6,9,45.53116872,-73.72211197,Ahuntsic-Cartierville,https://www.centris.ca/fr/condo~a-vendre~montreal-le-sud-ouest/28502502?view=Summary
"8580, Rue Raymond-Pelletier, Montréal",Condo à vendre,460 000 $,6 pièces,1 114 pc,,7,5,9,10,2 chambres,2 salles de bain,https://mspublic.centris.ca/media.ashx?id=ADDD250DCCA31E0DDDDDDDDDDD&t=pi&w=640&h=480&sm=c,4,8,8,4,8,8,8,8,4,7,9,45.55303981,-73.63245927,Ahuntsic-Cartierville,https://www.centris.ca/fr/condo~a-vendre~montreal-le-sud-ouest/28502502?view=Summary
"8500, Rue Raymond-Pelletier, Montréal",Condo à vendre,549 000 $,4 pièces,904 pc,,7,5,9,10,2 chambres,1 salle de bain,https://mspublic.centris.ca/media.ashx?id=ADDD250DCCE340DDDDDDDDDDDE&t=pi&w=640&h=480&sm=c,4,8,8,4,8,8,8,8,4,7,9,45.5517307,-73.6306121,Ahuntsic-Cartierville,https://www.centris.ca/fr/condo~a-vendre~montreal-le-sud-ouest/28502502?view=Summary
"1605, Rue Robert-Charbonneau, Montréal",Condo à vendre,325 000 $,7 pièces,734 pc,,7,5,9,10,1 chambre,1 salle de bain,https://mspublic.centris.ca/media.ashx?id=ADDD250DC079C5ADDDDDDDDDD4&t=pi&w=640&h=480&sm=c,4,8,8,4,8,8,8,8,4,7,9,45.53564,-73.6771657,Ahuntsic-Cartierville,https://www.centris.ca/fr/condo~a-vendre~montreal-le-sud-ouest/28502502?view=Summary
"11766, Rue Saint-Évariste, Montréal",Maison à vendre,1 040 000 $,11 pièces,,4 179 pc,7,5,7,9,4 chambres (1 au sous-sol),2 salles de bain,https://mspublic.centris.ca/media.ashx?id=ADDD250DCECF075DDDDDDDDDD4&t=pi&w=640&h=480&sm=c,8,4,7,3,9,8,6,6,2,5,5,45.52761304,-73.70250814,Ahuntsic-Cartierville,https://www.centris.ca/fr/condo~a-vendre~montreal-le-sud-ouest/28502502?view=Summary
"12188, Avenue du Bois-de-Boulogne, Montréal",Maison à vendre,499 000 $,13 pièces,,3 700 pc,9,5,6,8,5 chambres (1 au sous-sol),1 salle de bain,https://mspublic.centris.ca/media.ashx?id=ADDD250DC0EFF11DDDDDDDDDDF&t=pi&w=640&h=480&sm=c,6,7,7,3,9,10,6,7,3,5,8,45.54409442,-73.69887521,Ahuntsic-Cartierville,https://www.centris.ca/fr/condo~a-vendre~montreal-le-sud-ouest/28502502?view=Summary
"10770, Rue Berri, Montréal",Quadruplex à vendre,1 749 000 $,,,,6,6,7,10,,,https://mspublic.centris.ca/media.ashx?id=ADDD250DCA04609DDDDDDDDDDF&t=pi&w=640&h=480&sm=c,4,7,9,4,10,9,7,9,4,6,10,45.55477948,-73.67003339,Ahuntsic-Cartierville,https://www.centris.ca/fr/condo~a-vendre~montreal-le-sud-ouest/28502502?view=Summary
"9999, boulevard de l'Acadie, Montréal",Condo à vendre,569 000 $,9 pièces,1 167 pc,,9,5,8,9,2 chambres,2 salles de bain,https://mspublic.centris.ca/media.ashx?id=ADDD250DC0D308EDDDDDDDDDD2&t=pi&w=640&h=480&sm=c,3,3,9,4,8,9,8,10,3,6,4,45.5353237,-73.669446,Ahuntsic-Cartierville,https://www.centris.ca/fr/condo~a-vendre~montreal-le-sud-ouest/28502502?view=Summary
"9999, boulevard de l'Acadie, Montréal",Condo à vendre,389 900 $,6 pièces,756 pc,,9,5,8,9,2 chambres,1 salle de bain,https://mspublic.centris.ca/media.ashx?id=ADDD250DCA1F13EDDDDDDDDDDF&t=pi&w=640&h=480&sm=c,3,3,9,4,8,9,8,10,3,6,4,45.5353237,-73.669446,Ahuntsic-Cartierville,https://www.centris.ca/fr/condo~a-vendre~montreal-le-sud-ouest/28502502?view=Summary
"1021, Rue François-Audet, Montréal",Maison à vendre,694 900 $,13 pièces,,2 746 pc,7,3,7,9,5 chambres (1 au sous-sol),3 salles de bain et 1 salle d'eau,https://mspublic.centris.ca/media.ashx?id=ADDD250DCA81108DDDDDDDDDDA&t=pi&w=640&h=480&sm=c,7,4,7,4,5,8,7,8,2,6,3,45.53849778,-73.6700618,Ahuntsic-Cartierville,https://www.centris.ca/fr/condo~a-vendre~montreal-le-sud-ouest/28502502?view=Summary
"9940, Avenue Millen, Montréal",Duplex à vendre,849 000 $,,,3 450 pc,6,6,9,10,,,https://mspublic.centris.ca/media.ashx?id=ADDD250DC0A2C55DDDDDDDDDDF&t=pi&w=640&h=480&sm=c,6,7,10,4,10,9,8,8,4,6,9,45.55327682,-73.65632297,Ahuntsic-Cartierville,https://www.centris.ca/fr/condo~a-vendre~montreal-le-sud-ouest/28502502?view=Summary
"10230, Rue Waverly, Montréal",Duplex à vendre,1 049 000 $,,,4 549 pc,6,4,10,10,,,https://mspublic.centris.ca/media.ashx?id=ADDD250DCE5080BDDDDDDDDDD4&t=pi&w=640&h=480&sm=c,8,7,9,4,10,9,8,9,6,6,8,45.54594983,-73.665302,Ahuntsic-Cartierville,https://www.centris.ca/fr/condo~a-vendre~montreal-le-sud-ouest/28502502?view=Summary
"10505, Rue Verville, Montréal",Maison à vendre,859 000 $,9 pièces,,2 880 pc,7,4,7,9,5 chambres (2 au sous-sol),2 salles de bain et 1 salle d'eau,https://mspublic.centris.ca/media.ashx?id=ADDD250DC2FD61DDDDDDDDDDD4&t=pi&w=640&h=480&sm=c,4,6,8,4,9,9,7,8,3,6,7,45.5442877,-73.6712805,Ahuntsic-Cartierville,https://www.centris.ca/fr/condo~a-vendre~montreal-le-sud-ouest/28502502?view=Summary
"11195, Rue Pasteur, Montréal",Maison à vendre,689 000 $,10 pièces,,4 600 pc,7,4,6,9,5 chambres (2 au sous-sol),1 salle de bain,https://mspublic.centris.ca/media.ashx?id=ADDD250DCA364B3DDDDDDDDDDE&t=pi&w=640&h=480&sm=c,9,2,7,3,8,9,7,7,3,5,9,45.5339966,-73.685736,Ahuntsic-Cartierville,https://www.centris.ca/fr/condo~a-vendre~montreal-le-sud-ouest/28502502?view=Summary
"8624, Avenue André-Grasset, Montréal",Condo à vendre,489 900 $,6 pièces,926 pc,,7,5,9,10,2 chambres,1 salle de bain,https://mspublic.centris.ca/media.ashx?id=ADDD250DC0121FCDDDDDDDDDD4&t=pi&w=640&h=480&sm=c,9,7,8,4,9,7,8,9,4,7,7,45.55463535,-73.62888064,Ahuntsic-Cartierville,https://www.centris.ca/fr/condo~a-vendre~montreal-le-sud-ouest/28502502?view=Summary
"9950, Place de l'Acadie, Montréal",Condo à vendre,339 000 $,4 pièces,603 pc,,9,3,7,10,1 chambre,1 salle de bain,https://mspublic.centris.ca/media.ashx?id=ADDD250DCACB4F2DDDDDDDDDDF&t=pi&w=640&h=480&sm=c,4,3,8,4,7,9,7,7,2,6,8,45.5334266,-73.6800847,Ahuntsic-Cartierville,https://www.centris.ca/fr/condo~a-vendre~montreal-le-sud-ouest/28502502?view=Summary
"10131, Rue Berri, Montréal",Duplex à vendre,800 000 $,,890 pc,2 861 pc,8,6,9,10,,,https://mspublic.centris.ca/media.ashx?id=ADDD250DCC45DC8DDDDDDDDDDE&t=pi&w=640&h=480&sm=c,6,6,10,4,10,9,8,8,4,6,8,45.55210145,-73.66007137,Ahuntsic-Cartierville,https://www.centris.ca/fr/condo~a-vendre~montreal-le-sud-ouest/28502502?view=Summary
"10730, Rue Saint-Denis, Montréal",Triplex à vendre,1 290 000 $,,,4 429 pc,6,6,7,10,,,https://mspublic.centris.ca/media.ashx?id=ADDD250DC094F25DDDDDDDDDD0&t=pi&w=640&h=480&sm=c,4,7,9,4,10,9,7,9,4,6,10,45.5538886,-73.67001456,Ahuntsic-Cartierville,https://www.centris.ca/fr/condo~a-vendre~montreal-le-sud-ouest/28502502?view=Summary
"9870, Rue J.-J.-Gagnier, Montréal",Triplex à vendre,725 000 $,,,2 625 pc,7,5,8,8,,,https://mspublic.centris.ca/media.ashx?id=ADDD250DCA0AE9CDDDDDDDDDD2&t=pi&w=640&h=480&sm=c,7,4,8,4,10,10,7,9,4,6,8,45.57630753,-73.63931372,Ahuntsic-Cartierville,https://www.centris.ca/fr/condo~a-vendre~montreal-le-sud-ouest/28502502?view=Summary
"11838, Rue Frigon, Montréal",Maison à vendre,1 499 000 $,13 pièces,,5 915 pc,7,5,7,9,4 chambres (1 au sous-sol),3 salles de bain,https://mspublic.centris.ca/media.ashx?id=ADDD250DCA5D3B5DDDDDDDDDD2&t=pi&w=640&h=480&sm=c,9,5,8,3,10,10,6,8,4,5,10,45.5385169,-73.692911,Ahuntsic-Cartierville,https://www.centris.ca/fr/condo~a-vendre~montreal-le-sud-ouest/28502502?view=Summary
"10163, Rue de Lille, Montréal",Condo à vendre,675 000 $,8 pièces,1 282 pc,,6,3,10,8,3 chambres,2 salles de bain,https://mspublic.centris.ca/media.ashx?id=ADDD250DCAF7E23DDDDDDDDDDF&t=pi&w=640&h=480&sm=c,8,5,8,4,10,9,6,9,4,6,7,45.57349417,-73.64653928,Ahuntsic-Cartierville,https://www.centris.ca/fr/condo~a-vendre~montreal-le-sud-ouest/28502502?view=Summary
"10130, Avenue Bruchési, Montréal",Triplex à vendre,715 000 $,,,2 741 pc,6,3,10,8,,,https://mspublic.centris.ca/media.ashx?id=ADDD250DCA8A588DDDDDDDDDD1&t=pi&w=640&h=480&sm=c,8,5,7,4,10,9,6,9,4,6,7,45.5736195,-73.645374,Ahuntsic-Cartierville,https://www.centris.ca/fr/condo~a-vendre~montreal-le-sud-ouest/28502502?view=Summary
"10050, boulevard de l'Acadie, Montréal",Condo à vendre,479 000 $,11 pièces,1 386 pc,,8,3,7,8,2 chambres,2 salles de bain,https://mspublic.centris.ca/media.ashx?id=ADDD250DCC76A73DDDDDDDDDD0&t=pi&w=640&h=480&sm=c,4,3,7,3,6,9,7,7,2,6,5,45.5342931,-73.6728624,Ahuntsic-Cartierville,https://www.centris.ca/fr/condo~a-vendre~montreal-le-sud-ouest/28502502?view=Summary
"12130, boulevard Saint-Germain, Montréal",Maison à vendre,919 999 $,19 pièces,,4 250 pc,8,4,7,10,5 chambres (1 au sous-sol),3 salles de bain et 1 salle d'eau,https://mspublic.centris.ca/media.ashx?id=ADDD250DCE6C341DDDDDDDDDD1&t=pi&w=640&h=480&sm=c,7,3,7,3,10,9,6,6,2,5,8,45.53346008,-73.71034687,Ahuntsic-Cartierville,https://www.centris.ca/fr/condo~a-vendre~montreal-le-sud-ouest/28502502?view=Summary
"10856, Rue Basile-Routhier, Montréal",Condo à vendre,699 000 $,5 pièces,968 pc,,8,6,8,10,2 chambres,2 salles de bain,https://mspublic.centris.ca/media.ashx?id=ADDD250DC09113EDDDDDDDDDDF&t=pi&w=640&h=480&sm=c,4,7,9,4,10,8,7,9,4,6,9,45.5571076,-73.6716057,Ahuntsic-Cartierville,https://www.centris.ca/fr/condo~a-vendre~montreal-le-sud-ouest/28502502?view=Summary
"12189, Rue James-Morrice, Montréal",Triplex à vendre,888 000 $,,,,7,5,7,7,,,https://mspublic.centris.ca/media.ashx?id=ADDD250DCA6D9B6DDDDDDDDDD2&t=pi&w=640&h=480&sm=c,10,4,7,3,9,8,6,8,4,5,7,45.54091244,-73.702846,Ahuntsic-Cartierville,https://www.centris.ca/fr/condo~a-vendre~montreal-le-sud-ouest/28502502?view=Summary
"1600, Rue Louis-Carrier, Montréal",Condo à vendre,354 000 $,6 pièces,1 017 pc,,7,3,7,10,2 chambres,1 salle de bain,https://mspublic.centris.ca/media.ashx?id=ADDD250DCEC5CD9DDDDDDDDDDF&t=pi&w=640&h=480&sm=c,9,3,8,4,7,9,7,7,2,6,7,45.5359155,-73.6779185,Ahuntsic-Cartierville,https://www.centris.ca/fr/condo~a-vendre~montreal-le-sud-ouest/28502502?view=Summary
"12365, Rue Notre-Dame-des-Anges, Montréal",Quintuplex à vendre,1 899 000 $,,,8 565 pc,9,6,6,10,,,https://mspublic.centris.ca/media.ashx?id=ADDD250DCEDEB39DDDDDDDDDD2&t=pi&w=640&h=480&sm=c,5,4,7,3,10,10,5,6,3,5,10,45.53521731,-73.717293,Ahuntsic-Cartierville,https://www.centris.ca/fr/condo~a-vendre~montreal-le-sud-ouest/28502502?view=Summary
"8566, Rue Joseph-Quintal, Montréal",Condo à vendre,499 000 $,6 pièces,976 pc,,7,5,9,10,2 chambres,1 salle de bain,https://mspublic.centris.ca/media.ashx?id=ADDD250DC029E34DDDDDDDDDD4&t=pi&w=640&h=480&sm=c,7,7,8,4,8,7,8,9,4,7,8,45.55356003,-73.62850788,Ahuntsic-Cartierville,https://www.centris.ca/fr/condo~a-vendre~montreal-le-sud-ouest/28502502?view=Summary
"2577, boulevard Henri-Bourassa Est, Montréal",Quintuplex à vendre,1 099 000 $,,,2 095 pc,8,3,8,10,,,https://mspublic.centris.ca/media.ashx?id=ADDD250DCEE54C3DDDDDDDDDDC&t=pi&w=640&h=480&sm=c,3,7,8,4,10,10,6,9,5,6,6,45.57911379,-73.65299237,Ahuntsic-Cartierville,https://www.centris.ca/fr/condo~a-vendre~montreal-le-sud-ouest/28502502?view=Summary
"11973, Rue James-Morrice, Montréal",Duplex à vendre,949 000 $,,1 200 pc,3 500 pc,7,6,8,9,,,https://mspublic.centris.ca/media.ashx?id=ADDD250DCEC89E4DDDDDDDDDDB&t=pi&w=640&h=480&sm=c,5,3,7,4,10,9,7,9,4,6,8,45.53813568,-73.69841451,Ahuntsic-Cartierville,https://www.centris.ca/fr/condo~a-vendre~montreal-le-sud-ouest/28502502?view=Summary
"12025, Avenue De Poutrincourt, Montréal",Condo à vendre,339 000 $,7 pièces,724 pc,,7,6,7,9,1 chambre,1 salle de bain,https://mspublic.centris.ca/media.ashx?id=ADDD250DCAB85C3DDDDDDDDDD2&t=pi&w=640&h=480&sm=c,6,3,7,4,9,9,7,9,4,6,8,45.5377781,-73.7005956,Ahuntsic-Cartierville,https://www.centris.ca/fr/condo~a-vendre~montreal-le-sud-ouest/28502502?view=Summary
"11891, Rue Lachapelle, Montréal",Condo à vendre,279 000 $,6 pièces,484 pc,,9,6,7,10,1 chambre,1 salle de bain,https://mspublic.centris.ca/media.ashx?id=ADDD250DCE6BBF7DDDDDDDDDDB&t=pi&w=640&h=480&sm=c,4,4,8,4,9,9,5,9,3,6,6,45.5256165,-73.71275336,Ahuntsic-Cartierville,https://www.centris.ca/fr/condo~a-vendre~montreal-le-sud-ouest/28502502?view=Summary
"10550, Place de l'Acadie, Montréal",Condo à vendre,355 000 $,7 pièces,874 pc,,7,3,7,10,2 chambres,1 salle de bain,https://mspublic.centris.ca/media.ashx?id=ADDD250DCC94727DDDDDDDDDD4&t=pi&w=640&h=480&sm=c,4,3,8,4,6,9,7,6,2,6,8,45.5326484,-73.6800345,Ahuntsic-Cartierville,https://www.centris.ca/fr/condo~a-vendre~montreal-le-sud-ouest/28502502?view=Summary
"10753, boulevard Saint-Laurent, Montréal",Duplex à vendre,659 000 $,,,,7,5,8,10,,,https://mspublic.centris.ca/media.ashx?id=ADDD250DCC8EAC5DDDDDDDDDDC&t=pi&w=640&h=480&sm=c,7,7,9,4,10,10,7,9,4,6,9,45.55073662,-73.67195194,Ahuntsic-Cartierville,https://www.centris.ca/fr/condo~a-vendre~montreal-le-sud-ouest/28502502?view=Summary
"10856, Rue Basile-Routhier, Montréal",Condo à vendre,599 000 $,9 pièces,862 pc,,8,6,8,10,2 chambres,2 salles de bain,https://mspublic.centris.ca/media.ashx?id=ADDD250DC0A8E48DDDDDDDDDD1&t=pi&w=640&h=480&sm=c,4,7,9,4,10,8,7,9,4,6,9,45.5571076,-73.6716057,Ahuntsic-Cartierville,https://www.centris.ca/fr/condo~a-vendre~montreal-le-sud-ouest/28502502?view=Summary
"9950, Place de l'Acadie, Montréal",Condo à vendre,339 000 $,5 pièces,567 pc,,8,3,5,8,1 chambre,1 salle de bain,https://mspublic.centris.ca/media.ashx?id=ADDD250DC0934D1DDDDDDDDDDE&t=pi&w=640&h=480&sm=c,0,3,7,3,7,8,7,7,2,5,8,45.5334266,-73.6800847,Ahuntsic-Cartierville,https://www.centris.ca/fr/condo~a-vendre~montreal-le-sud-ouest/28502502?view=Summary
"10755, Rue De Saint-Réal, Montréal",Condo à vendre,324 900 $,7 pièces,859 pc,,8,3,6,9,2 chambres,1 salle de bain,https://mspublic.centris.ca/media.ashx?id=ADDD250DCA9A986DDDDDDDDDDC&t=pi&w=640&h=480&sm=c,6,4,8,3,9,7,7,8,2,6,7,45.538691,-73.6787479,Ahuntsic-Cartierville,https://www.centris.ca/fr/condo~a-vendre~montreal-le-sud-ouest/28502502?view=Summary
"2205, Avenue Alfred-Laliberté, Montréal",Maison à vendre,849 000 $,15 pièces,,4 081 pc,8,3,5,7,4 chambres (1 au sous-sol),3 salles de bain,https://mspublic.centris.ca/media.ashx?id=ADDD250DCE290F8DDDDDDDDDDA&t=pi&w=640&h=480&sm=c,0,3,6,3,5,8,6,5,2,5,7,45.5331679,-73.6820004,Ahuntsic-Cartierville,https://www.centris.ca/fr/condo~a-vendre~montreal-le-sud-ouest/28502502?view=Summary
"12112, Rue De Saint-Réal, Montréal",Maison en copropriété à vendre,900 000 $,14 pièces,,1 892 pc,8,5,6,8,3 chambres,3 salles de bain et 1 salle d'eau,https://mspublic.centris.ca/media.ashx?id=ADDD250DCA418EFDDDDDDDDDD0&t=pi&w=640&h=480&sm=c,5,7,7,3,9,10,6,7,3,5,8,45.54419431,-73.69734645,Ahuntsic-Cartierville,https://www.centris.ca/fr/condo~a-vendre~montreal-le-sud-ouest/28502502?view=Summary
"9800, Rue Chambord, Montréal",Triplex à vendre,1 099 000 $,,,3 400 pc,6,4,10,10,,,https://mspublic.centris.ca/media.ashx?id=ADDD250DCEC0E3FDDDDDDDDDD0&t=pi&w=640&h=480&sm=c,8,9,9,4,10,9,8,9,4,6,7,45.557906,-73.6522573,Ahuntsic-Cartierville,https://www.centris.ca/fr/condo~a-vendre~montreal-le-sud-ouest/28502502?view=Summary
"1100, Rue de Port-Royal Est, Montréal",Condo à vendre,399 900 $,5 pièces,749 pc,,7,5,9,10,2 chambres,1 salle de bain,https://mspublic.centris.ca/media.ashx?id=ADDD250DC08FB06DDDDDDDDDD0&t=pi&w=640&h=480&sm=c,7,9,9,4,10,9,8,9,4,6,8,45.55632946,-73.65091055,Ahuntsic-Cartierville,https://www.centris.ca/fr/condo~a-vendre~montreal-le-sud-ouest/28502502?view=Summary
"2320, Rue Nicolas-Perrot, Montréal",Maison à vendre,888 000 $,10 pièces,,4 690 pc,8,4,6,7,3 chambres,2 salles de bain,https://mspublic.centris.ca/media.ashx?id=ADDD250DCE8064ADDDDDDDDDDA&t=pi&w=640&h=480&sm=c,5,3,6,3,6,9,6,6,2,5,8,45.53171531,-73.68678949,Ahuntsic-Cartierville,https://www.centris.ca/fr/condo~a-vendre~montreal-le-sud-ouest/28502502?view=Summary
"10262, Rue Saint-Hubert, Montréal",Duplex à vendre,899 900 $,,,3 173 pc,8,4,6,7,,,https://mspublic.centris.ca/media.ashx?id=ADDD250DCAC75C1DDDDDDDDDD4&t=pi&w=640&h=480&sm=c,5,3,6,3,6,9,6,6,2,5,8,45.55614982,-73.65995538,Ahuntsic-Cartierville,https://www.centris.ca/fr/condo~a-vendre~montreal-le-sud-ouest/28502502?view=Summary
"10675, Rue André-Jobin, Montréal",Triplex à vendre,649 000 $,,,3 890 pc,6,3,8,10,,,https://mspublic.centris.ca/media.ashx?id=ADDD250DC081551DDDDDDDDDDE&t=pi&w=640&h=480&sm=c,4,6,7,4,10,9,6,9,4,6,6,45.57864568,-73.65260449,Ahuntsic-Cartierville,https://www.centris.ca/fr/condo~a-vendre~montreal-le-sud-ouest/28502502?view=Summary
"12221, Rue Filion, Montréal",Maison à vendre,1 250 000 $,15 pièces,,8 906 pc,8,4,5,10,5 chambres (2 au sous-sol),3 salles de bain et 1 salle d'eau,https://mspublic.centris.ca/media.ashx?id=ADDD250DC019F84DDDDDDDDDD1&t=pi&w=640&h=480&sm=c,2,2,7,3,9,9,6,6,2,6,8,45.5373073,-73.7083575,Ahuntsic-Cartierville,https://www.centris.ca/fr/condo~a-vendre~montreal-le-sud-ouest/28502502?view=Summary
"8950, Rue Saint-Urbain, Montréal",Duplex à vendre,764 900 $,,,1 960 pc,7,6,9,10,,,https://mspublic.centris.ca/media.ashx?id=ADDD250DCE4800FDDDDDDDDDDC&t=pi&w=640&h=480&sm=c,9,4,9,5,10,9,9,9,4,7,10,45.54130817,-73.64667822,Ahuntsic-Cartierville,https://www.centris.ca/fr/condo~a-vendre~montreal-le-sud-ouest/28502502?view=Summary
"1445, Rue de Louvain Est, Montréal",Condo à vendre,499 000 $,6 pièces,1 506 pc,,9,4,8,10,4 chambres,1 salle de bain,https://mspublic.centris.ca/media.ashx?id=ADDD250DCA92F6BDDDDDDDDDD2&t=pi&w=640&h=480&sm=c,6,10,8,4,10,8,7,8,4,6,8,45.5624265,-73.64371888,Ahuntsic-Cartierville,https://www.centris.ca/fr/condo~a-vendre~montreal-le-sud-ouest/28502502?view=Summary
"10050, Place de l'Acadie, Montréal",Condo à vendre,40 000 $,1 pièce,,,7,3,7,10,,,https://mspublic.centris.ca/media.ashx?id=ADDD250DC09ADD8DDDDDDDDDDE&t=pi&w=640&h=480&sm=c,4,3,8,4,6,9,7,6,2,6,8,45.5333343,-73.6806805,Ahuntsic-Cartierville,https://www.centris.ca/fr/condo~a-vendre~montreal-le-sud-ouest/28502502?view=Summary
"10491, Rue Rancourt, Montréal",Maison à vendre,749 000 $,15 pièces,,2 175 pc,6,3,10,8,4 chambres,2 salles de bain,https://mspublic.centris.ca/media.ashx?id=ADDD250DC0BFA21DDDDDDDDDD1&t=pi&w=640&h=480&sm=c,8,6,7,4,10,10,6,9,4,6,6,45.57486314,-73.65176341,Ahuntsic-Cartierville,https://www.centris.ca/fr/condo~a-vendre~montreal-le-sud-ouest/28502502?view=Summary
"11757, Rue Saint-Évariste, Montréal",Maison à vendre,699 000 $,11 pièces,,4 750 pc,7,5,7,9,5 chambres (2 au sous-sol),2 salles de bain,https://mspublic.centris.ca/media.ashx?id=ADDD250DC0B6562DDDDDDDDDDD&t=pi&w=640&h=480&sm=c,8,4,7,3,9,8,6,6,2,5,5,45.52773351,-73.7023216,Ahuntsic-Cartierville,https://www.centris.ca/fr/condo~a-vendre~montreal-le-sud-ouest/28502502?view=Summary
"405, Rue Fleury Ouest, Montréal",Quadruplex à vendre,1 099 000 $,,,3 795 pc,7,4,10,10,,,https://mspublic.centris.ca/media.ashx?id=ADDD250DCCF3A20DDDDDDDDDDA&t=pi&w=640&h=480&sm=c,8,6,9,4,10,10,8,8,4,6,5,45.5431258,-73.668301,Ahuntsic-Cartierville,https://www.centris.ca/fr/condo~a-vendre~montreal-le-sud-ouest/28502502?view=Summary
"8704, Avenue André-Grasset, Montréal",Condo à vendre,359 000 $,5 pièces,907 pc,,7,5,9,10,1 chambre,1 salle de bain,https://mspublic.centris.ca/media.ashx?id=ADDD250DC0FEDFFDDDDDDDDDDA&t=pi&w=640&h=480&sm=c,9,7,8,5,9,7,8,9,4,7,8,45.55541345,-73.6306801,Ahuntsic-Cartierville,https://www.centris.ca/fr/condo~a-vendre~montreal-le-sud-ouest/28502502?view=Summary
"8483, Rue Aurèle-Allard, Montréal",Quintuplex à vendre,1 350 000 $,,,4 370 pc,7,6,9,10,,,https://mspublic.centris.ca/media.ashx?id=ADDD250DC2901B7DDDDDDDDDD2&t=pi&w=640&h=480&sm=c,7,7,8,4,9,8,8,9,4,7,8,45.55573811,-73.62712668,Ahuntsic-Cartierville,https://www.centris.ca/fr/condo~a-vendre~montreal-le-sud-ouest/28502502?view=Summary
"12420, Rue Ranger, Montréal",Quadruplex à vendre,1 288 000 $,,,4 880 pc,7,6,8,10,,,https://mspublic.centris.ca/media.ashx?id=ADDD250DCECDFAFDDDDDDDDDDD&t=pi&w=640&h=480&sm=c,10,5,7,3,10,9,5,7,3,5,9,45.53317973,-73.72256999,Ahuntsic-Cartierville,https://www.centris.ca/fr/condo~a-vendre~montreal-le-sud-ouest/28502502?view=Summary
"12000, Rue Poincaré, Montréal",Condo à vendre,399 900 $,5 pièces,901 pc,,8,5,6,8,2 chambres,1 salle de bain,https://mspublic.centris.ca/media.ashx?id=ADDD250DC0F11A3DDDDDDDDDD1&t=pi&w=640&h=480&sm=c,8,7,7,3,10,9,6,7,3,5,8,45.5450458,-73.6928475,Ahuntsic-Cartierville,https://www.centris.ca/fr/condo~a-vendre~montreal-le-sud-ouest/28502502?view=Summary
"8750, Rue Lajeunesse, Montréal",Triplex à vendre,650 000 $,,,2 124 pc,7,6,9,10,,,https://mspublic.centris.ca/media.ashx?id=ADDD250DCA572C9DDDDDDDDDDB&t=pi&w=640&h=480&sm=c,0,6,10,5,10,9,8,10,5,7,9,45.546469,-73.6384067,Ahuntsic-Cartierville,https://www.centris.ca/fr/condo~a-vendre~montreal-le-sud-ouest/28502502?view=Summary
"10737, Rue Sackville, Montréal",Condo à vendre,648 000 $,11 pièces,2 100 pc,,7,3,8,8,3 chambres,3 salles de bain,https://mspublic.centris.ca/media.ashx?id=ADDD250DC0A1D79DDDDDDDDDDB&t=pi&w=640&h=480&sm=c,4,6,7,4,10,10,6,8,4,5,5,45.5795106,-73.65286218,Ahuntsic-Cartierville,https://www.centris.ca/fr/condo~a-vendre~montreal-le-sud-ouest/28502502?view=Summary
"10380, boulevard Saint-Laurent, Montréal",Duplex à vendre,725 000 $,,,3 650 pc,8,5,10,10,,,https://mspublic.centris.ca/media.ashx?id=ADDD250DCA6E85ADDDDDDDDDDC&t=pi&w=640&h=480&sm=c,4,7,9,5,10,10,8,10,4,6,9,45.54880691,-73.66625395,Ahuntsic-Cartierville,https://www.centris.ca/fr/condo~a-vendre~montreal-le-sud-ouest/28502502?view=Summary
"8845, Rue de Reims, Montréal",Duplex à vendre,639 000 $,,,2 000 pc,7,6,8,10,,,https://mspublic.centris.ca/media.ashx?id=ADDD250DCE4AEBFDDDDDDDDDD4&t=pi&w=640&h=480&sm=c,0,4,9,5,9,9,9,9,4,7,9,45.54031035,-73.64488595,Ahuntsic-Cartierville,https://www.centris.ca/fr/condo~a-vendre~montreal-le-sud-ouest/28502502?view=Summary
"10856, Rue Basile-Routhier, Montréal",Condo à vendre,817 500 $,8 pièces,1 076 pc,,6,6,8,10,2 chambres,2 salles de bain,https://mspublic.centris.ca/media.ashx?id=ADDD250DCCCE88FDDDDDDDDDD2&t=pi&w=640&h=480&sm=c,3,7,9,4,10,8,7,9,5,6,10,45.5571076,-73.6716057,Ahuntsic-Cartierville,https://www.centris.ca/fr/condo~a-vendre~montreal-le-sud-ouest/28502502?view=Summary
"2620, Rue Sauvé Est, Montréal",Triplex à vendre,789 000 $,,,3 667 pc,7,5,8,8,,,https://mspublic.centris.ca/media.ashx?id=ADDD250DC0058C5DDDDDDDDDDC&t=pi&w=640&h=480&sm=c,7,6,8,4,10,9,7,8,3,6,8,45.5745263,-73.6402775,Ahuntsic-Cartierville,https://www.centris.ca/fr/condo~a-vendre~montreal-le-sud-ouest/28502502?view=Summary
"9070, Rue Paul-Morand, Montréal",Maison à vendre,2 295 000 $,12 pièces,,8 977 pc,9,2,3,9,7 chambres (2 au sous-sol),4 salles de bain et 1 salle d'eau,https://mspublic.centris.ca/media.ashx?id=ADDD250DCA32084DDDDDDDDDD4&t=pi&w=640&h=480&sm=c,7,4,5,1,3,9,3,2,1,4,9,45.5194748,-73.7403973,Ahuntsic-Cartierville,https://www.centris.ca/fr/condo~a-vendre~montreal-le-sud-ouest/28502502?view=Summary
"10856, Rue Basile-Routhier, Montréal",Condo à vendre,398 000 $,5 pièces,605 pc,,8,6,8,10,1 chambre,1 salle de bain,https://mspublic.centris.ca/media.ashx?id=ADDD250DC4FBF9ADDDDDDDDDDF&t=pi&w=640&h=480&sm=c,4,7,9,4,10,8,7,9,4,6,9,45.5571076,-73.6716057,Ahuntsic-Cartierville,https://www.centris.ca/fr/condo~a-vendre~montreal-le-sud-ouest/28502502?view=Summary
"8, Avenue du Ruisseau, Montréal",Terrain à vendre,718 000 $,,,7 075 pc,10,4,3,8,,,https://mspublic.centris.ca/media.ashx?id=ADDD250DCA9E546DDDDDDDDDD1&t=pi&w=640&h=480&sm=c,7,6,5,1,3,8,4,2,0,4,8,45.51056875,-73.75426967,Ahuntsic-Cartierville,https://www.centris.ca/fr/condo~a-vendre~montreal-le-sud-ouest/28502502?view=Summary
"10862, Rue Basile-Routhier, Montréal",Maison en copropriété à vendre,925 000 $,10 pièces,,,6,6,8,10,3 chambres (1 au sous-sol),3 salles de bain et 1 salle d'eau,https://mspublic.centris.ca/media.ashx?id=ADDD250D25F642EDDDDDDDDDDB&t=pi&w=640&h=480&sm=c,3,7,9,4,10,8,7,9,5,6,10,45.5571076,-73.6716057,Ahuntsic-Cartierville,https://www.centris.ca/fr/condo~a-vendre~montreal-le-sud-ouest/28502502?view=Summary
"12124, Rue James-Morrice, Montréal",Triplex à vendre,990 000 $,,1 335 pc,2 781 pc,7,5,7,7,,,https://mspublic.centris.ca/media.ashx?id=ADDD250DCE53F67DDDDDDDDDD2&t=pi&w=640&h=480&sm=c,10,4,7,3,9,8,6,8,4,5,7,45.53995982,-73.70169166,Ahuntsic-Cartierville,https://www.centris.ca/fr/condo~a-vendre~montreal-le-sud-ouest/28502502?view=Summary
"12001, Rue Lachapelle, Montréal",Maison à vendre,659 888 $,11 pièces,,5 430 pc,8,6,7,10,4 chambres (2 au sous-sol),2 salles de bain,https://mspublic.centris.ca/media.ashx?id=ADDD250DCC56C90DDDDDDDDDD2&t=pi&w=640&h=480&sm=c,4,4,8,4,9,9,5,9,3,6,6,45.5266168,-73.7143793,Ahuntsic-Cartierville,https://www.centris.ca/fr/condo~a-vendre~montreal-le-sud-ouest/28502502?view=Summary
"1741, Rue Louis-Alphonse-Venne, Montréal",Condo à vendre,699 000 $,7 pièces,1 439 pc,,7,3,7,10,3 chambres,1 salle de bain,https://mspublic.centris.ca/media.ashx?id=ADDD250DC07AD35DDDDDDDDDDD&t=pi&w=640&h=480&sm=c,5,7,8,4,10,10,7,8,3,6,9,45.56424777,-73.64726934,Ahuntsic-Cartierville,https://www.centris.ca/fr/condo~a-vendre~montreal-le-sud-ouest/28502502?view=Summary
"125, Rue Chabanel Ouest, Montréal",Loft / Studio à vendre,399 900 $,5 pièces,1 236 pc,,8,5,7,10,1 chambre,1 salle de bain,https://mspublic.centris.ca/media.ashx?id=ADDD250DC0D98EADDDDDDDDDDD&t=pi&w=640&h=480&sm=c,6,5,9,4,10,9,9,9,4,6,9,45.5412739,-73.6531853,Ahuntsic-Cartierville,https://www.centris.ca/fr/condo~a-vendre~montreal-le-sud-ouest/28502502?view=Summary
"2060, Rue Prieur Est, Montréal",Maison à vendre,699 000 $,8 pièces,,4 893 pc,6,3,9,10,4 chambres,1 salle de bain et 1 salle d'eau,https://mspublic.centris.ca/media.ashx?id=ADDD250DCA429B4DDDDDDDDDDA&t=pi&w=640&h=480&sm=c,8,6,8,4,9,9,7,8,4,6,8,45.5715644,-73.6536365,Ahuntsic-Cartierville,https://www.centris.ca/fr/condo~a-vendre~montreal-le-sud-ouest/28502502?view=Summary
"2610, Rue Bohlé, Montréal",Duplex à vendre,739 000 $,,,3 018 pc,7,5,7,7,,,https://mspublic.centris.ca/media.ashx?id=ADDD250DCAF6A41DDDDDDDDDD2&t=pi&w=640&h=480&sm=c,10,4,7,3,8,8,6,8,3,5,7,45.5407298,-73.7051852,Ahuntsic-Cartierville,https://www.centris.ca/fr/condo~a-vendre~montreal-le-sud-ouest/28502502?view=Summary
"10212, Rue Lajeunesse, Montréal",Condo à vendre,319 900 $,5 pièces,710 pc,,8,6,9,10,1 chambre,1 salle de bain,https://mspublic.centris.ca/media.ashx?id=ADDD250DCC33CE8DDDDDDDDDD0&t=pi&w=640&h=480&sm=c,5,7,9,4,10,9,8,8,4,6,8,45.55313334,-73.66131196,Ahuntsic-Cartierville,https://www.centris.ca/fr/condo~a-vendre~montreal-le-sud-ouest/28502502?view=Summary
"6170, Rue Vanier, Montréal",Terrain à vendre,1 298 000 $,,,9 780 pc,7,5,7,10,,,https://mspublic.centris.ca/media.ashx?id=ADDD250DC2E18C9DDDDDDDDDDE&t=pi&w=640&h=480&sm=c,4,5,8,3,10,10,5,9,4,6,8,45.53065325,-73.72378153,Ahuntsic-Cartierville,https://www.centris.ca/fr/condo~a-vendre~montreal-le-sud-ouest/28502502?view=Summary
"2075, Rue Caroline-Béique, Montréal",Condo à vendre,389 000 $,5 pièces,940 pc,,7,3,7,9,2 chambres,1 salle de bain,https://mspublic.centris.ca/media.ashx?id=ADDD250DCC42188DDDDDDDDDD1&t=pi&w=640&h=480&sm=c,3,3,8,4,7,10,7,8,2,6,5,45.5337999,-73.6722899,Ahuntsic-Cartierville,https://www.centris.ca/fr/condo~a-vendre~montreal-le-sud-ouest/28502502?view=Summary
"10250, Rue Waverly, Montréal",Duplex à vendre,989 000 $,,,3 412 pc,6,4,10,10,,,https://mspublic.centris.ca/media.ashx?id=ADDD250DC0969CFDDDDDDDDDDE&t=pi&w=640&h=480&sm=c,8,7,9,4,10,9,8,9,6,6,8,45.54604166,-73.66559862,Ahuntsic-Cartierville,https://www.centris.ca/fr/condo~a-vendre~montreal-le-sud-ouest/28502502?view=Summary
"12297, Avenue Martin, Montréal",Maison à vendre,2 997 000 $,15 pièces,,11 687 pc,10,3,3,10,5 chambres (1 au sous-sol),3 salles de bain et 1 salle d'eau,https://mspublic.centris.ca/media.ashx?id=ADDD250DC4AB6B7DDDDDDDDDD4&t=pi&w=640&h=480&sm=c,7,5,5,1,2,9,3,1,0,3,9,45.5105619,-73.7481552,Ahuntsic-Cartierville,https://www.centris.ca/fr/condo~a-vendre~montreal-le-sud-ouest/28502502?view=Summary
"11325, Rue Philippe-Hébert, Montréal",Maison à vendre,479 900 $,9 pièces,,4 760 pc,7,4,6,9,3 chambres,1 salle de bain et 1 salle d'eau,https://mspublic.centris.ca/media.ashx?id=ADDD250DC0C2E90DDDDDDDDDD1&t=pi&w=640&h=480&sm=c,9,3,7,3,8,10,7,7,3,5,9,45.53417353,-73.68766173,Ahuntsic-Cartierville,https://www.centris.ca/fr/condo~a-vendre~montreal-le-sud-ouest/28502502?view=Summary
"125, Rue Chabanel Ouest, Montréal",Loft / Studio à vendre,449 000 $,2 pièces,764 pc,,9,5,8,10,1 chambre,1 salle de bain,https://mspublic.centris.ca/media.ashx?id=ADDD250DCE8C2D4DDDDDDDDDDB&t=pi&w=640&h=480&sm=c,6,5,9,4,10,9,10,9,4,7,9,45.5412739,-73.6531853,Ahuntsic-Cartierville,https://www.centris.ca/fr/condo~a-vendre~montreal-le-sud-ouest/28502502?view=Summary
"10856, Rue Basile-Routhier, Montréal",Loft / Studio à vendre,230 000 $,4 pièces,312 pc,,8,6,8,10,,1 salle de bain,https://mspublic.centris.ca/media.ashx?id=ADDD250DCA5D4FBDDDDDDDDDD2&t=pi&w=640&h=480&sm=c,4,7,9,4,10,8,7,9,4,6,9,45.5571076,-73.6716057,Ahuntsic-Cartierville,https://www.centris.ca/fr/condo~a-vendre~montreal-le-sud-ouest/28502502?view=Summary
"12445, Avenue Joseph-Édouard-Samson, Montréal",Maison à vendre,1 995 000 $,16 pièces,,12 243 pc,9,2,4,9,6 chambres (2 au sous-sol),4 salles de bain et 1 salle d'eau,https://mspublic.centris.ca/media.ashx?id=ADDD250DCA68648DDDDDDDDDD2&t=pi&w=640&h=480&sm=c,7,4,5,2,5,8,4,3,1,4,8,45.5225809,-73.7408883,Ahuntsic-Cartierville,https://www.centris.ca/fr/condo~a-vendre~montreal-le-sud-ouest/28502502?view=Summary
"10050, Place de l'Acadie, Montréal",Condo à vendre,410 000 $,4 pièces,719 pc,,9,2,4,9,2 chambres,1 salle de bain,https://mspublic.centris.ca/media.ashx?id=ADDD250DCE6CFCFDDDDDDDDDDD&t=pi&w=640&h=480&sm=c,7,4,5,2,5,8,4,3,1,4,8,45.5333343,-73.6806805,Ahuntsic-Cartierville,https://www.centris.ca/fr/condo~a-vendre~montreal-le-sud-ouest/28502502?view=Summary
"1713, boulevard Henri-Bourassa Est, Montréal",Condo à vendre,349 900 $,5 pièces,1 127 pc,,7,3,8,10,2 chambres,1 salle de bain,https://mspublic.centris.ca/media.ashx?id=ADDD250DC0153ADDDDDDDDDDD4&t=pi&w=640&h=480&sm=c,4,7,8,4,10,9,6,8,3,6,10,45.568212,-73.65977521,Ahuntsic-Cartierville,https://www.centris.ca/fr/condo~a-vendre~montreal-le-sud-ouest/28502502?view=Summary
"10681, Rue De Martigny, Montréal",Condo à vendre,270 000 $,3 pièces,524 pc,,8,3,8,10,1 chambre,1 salle de bain,https://mspublic.centris.ca/media.ashx?id=ADDD250DCED3171DDDDDDDDDD2&t=pi&w=640&h=480&sm=c,4,6,8,4,10,8,6,9,4,6,8,45.5759017,-73.6565673,Ahuntsic-Cartierville,https://www.centris.ca/fr/condo~a-vendre~montreal-le-sud-ouest/28502502?view=Summary
"11530, Rue Tanguay, Montréal",Maison à vendre,925 000 $,13 pièces,,4 350 pc,9,3,6,7,4 chambres,2 salles de bain,https://mspublic.centris.ca/media.ashx?id=ADDD250DC01A4F9DDDDDDDDDDD&t=pi&w=640&h=480&sm=c,9,6,7,3,9,9,7,4,3,5,4,45.54638682,-73.68096956,Ahuntsic-Cartierville,https://www.centris.ca/fr/condo~a-vendre~montreal-le-sud-ouest/28502502?view=Summary
"400, boulevard Gouin Est, Montréal",Triplex à vendre,2 475 000 $,,,12 017 pc,6,6,7,10,,,https://mspublic.centris.ca/media.ashx?id=ADDD250DCA5B186DDDDDDDDDD4&t=pi&w=640&h=480&sm=c,4,7,9,4,10,9,7,9,4,6,10,45.5547733,-73.6721136,Ahuntsic-Cartierville,https://www.centris.ca/fr/condo~a-vendre~montreal-le-sud-ouest/28502502?view=Summary
"10856, Rue Basile-Routhier, Montréal",Condo à vendre,399 000 $,5 pièces,615 pc,,8,6,8,10,1 chambre,1 salle de bain,https://mspublic.centris.ca/media.ashx?id=ADDD250DCAF8BD5DDDDDDDDDDB&t=pi&w=640&h=480&sm=c,4,7,9,4,10,8,7,9,4,6,9,45.5571076,-73.6716057,Ahuntsic-Cartierville,https://www.centris.ca/fr/condo~a-vendre~montreal-le-sud-ouest/28502502?view=Summary
"8805, Rue Verville, Montréal",Duplex à vendre,629 000 $,,,2 193 pc,7,5,7,10,,,https://mspublic.centris.ca/media.ashx?id=ADDD250DCEB38FFDDDDDDDDDDE&t=pi&w=640&h=480&sm=c,0,3,8,5,8,9,9,9,4,7,7,45.53674416,-73.64658975,Ahuntsic-Cartierville,https://www.centris.ca/fr/condo~a-vendre~montreal-le-sud-ouest/28502502?view=Summary
"719, Rue Fleury Ouest, Montréal",Quadruplex à vendre,989 900 $,,,3 264 pc,8,4,7,9,,,https://mspublic.centris.ca/media.ashx?id=ADDD250DCAF932ADDDDDDDDDDF&t=pi&w=640&h=480&sm=c,7,5,8,3,10,9,7,6,3,6,3,45.54019353,-73.67014065,Ahuntsic-Cartierville,https://www.centris.ca/fr/condo~a-vendre~montreal-le-sud-ouest/28502502?view=Summary
"10565, Avenue Curotte, Montréal",Maison à vendre,1 099 000 $,7 pièces,,4 550 pc,6,3,9,10,3 chambres,2 salles de bain et 1 salle d'eau,https://mspublic.centris.ca/media.ashx?id=ADDD250DCA9CEA7DDDDDDDDDDE&t=pi&w=640&h=480&sm=c,4,7,8,4,10,8,7,8,4,6,9,45.56433315,-73.65964759,Ahuntsic-Cartierville,https://www.centris.ca/fr/condo~a-vendre~montreal-le-sud-ouest/28502502?view=Summary
"9895, Avenue du Sacré-Coeur, Montréal",Maison à vendre,549 000 $,7 pièces,,5 000 pc,6,4,10,10,4 chambres (2 au sous-sol),,https://mspublic.centris.ca/media.ashx?id=ADDD250DCE177C0DDDDDDDDDD4&t=pi&w=640&h=480&sm=c,8,9,9,4,10,10,8,9,4,6,8,45.55907138,-73.65287746,Ahuntsic-Cartierville,https://www.centris.ca/fr/condo~a-vendre~montreal-le-sud-ouest/28502502?view=Summary
"11287, Rue Tolhurst, Montréal",Condo à vendre,725 000 $,7 pièces,1 367 pc,,8,3,6,9,3 chambres (1 au sous-sol),2 salles de bain,https://mspublic.centris.ca/media.ashx?id=ADDD250DC07E4A8DDDDDDDDDD2&t=pi&w=640&h=480&sm=c,9,6,8,3,8,10,7,6,3,6,6,45.54777433,-73.67808132,Ahuntsic-Cartierville,https://www.centris.ca/fr/condo~a-vendre~montreal-le-sud-ouest/28502502?view=Summary
"8540, Rue Raymond-Pelletier, Montréal",Condo à vendre,349 000 $,3 pièces,563 pc,,7,5,9,10,1 chambre,1 salle de bain,https://mspublic.centris.ca/media.ashx?id=ADDD250DCCE3F76DDDDDDDDDDA&t=pi&w=640&h=480&sm=c,4,8,8,4,8,8,8,8,4,7,9,45.55226837,-73.63154294,Ahuntsic-Cartierville,https://www.centris.ca/fr/condo~a-vendre~montreal-le-sud-ouest/28502502?view=Summary
"2355, Rue Dudemaine, Montréal",Maison à vendre,979 000 $,10 pièces,,4 483 pc,7,5,7,9,5 chambres (2 au sous-sol),3 salles de bain,https://mspublic.centris.ca/media.ashx?id=ADDD250DCAAE92FDDDDDDDDDDC&t=pi&w=640&h=480&sm=c,8,3,7,3,9,10,6,8,3,5,9,45.5354441,-73.69216034,Ahuntsic-Cartierville,https://www.centris.ca/fr/condo~a-vendre~montreal-le-sud-ouest/28502502?view=Summary
"10756, Grande Allée, Montréal",Triplex à vendre,1 675 000 $,,1 605 pc,5 000 pc,7,6,8,10,,,https://mspublic.centris.ca/media.ashx?id=ADDD250DC09D6FDDDDDDDDDDD2&t=pi&w=640&h=480&sm=c,4,7,9,4,10,9,7,8,4,6,10,45.55156313,-73.67204183,Ahuntsic-Cartierville,https://www.centris.ca/fr/condo~a-vendre~montreal-le-sud-ouest/28502502?view=Summary
"1635, Rue Sauriol Est, Montréal",Maison à vendre,1 795 000 $,16 pièces,,5 663 pc,6,3,9,10,8 chambres (4 au sous-sol),5 salles de bain,https://mspublic.centris.ca/media.ashx?id=ADDD250DC22A2DBDDDDDDDDDDD&t=pi&w=640&h=480&sm=c,9,7,8,4,9,9,7,9,3,6,9,45.56367659,-73.65243245,Ahuntsic-Cartierville,https://www.centris.ca/fr/condo~a-vendre~montreal-le-sud-ouest/28502502?view=Summary
"12220, Rue Saint-Évariste, Montréal",Maison à vendre,840 000 $,12 pièces,,3 776 pc,9,5,6,10,4 chambres (1 au sous-sol),3 salles de bain,https://mspublic.centris.ca/media.ashx?id=ADDD250DCA62B05DDDDDDDDDDC&t=pi&w=640&h=480&sm=c,5,4,7,3,9,9,5,5,2,5,9,45.53402662,-73.71261887,Ahuntsic-Cartierville,https://www.centris.ca/fr/condo~a-vendre~montreal-le-sud-ouest/28502502?view=Summary
"10190, Rue Parthenais, Montréal",Triplex à vendre,849 900 $,,,4 542 pc,6,3,10,8,,,https://mspublic.centris.ca/media.ashx?id=ADDD250DC4D24B8DDDDDDDDDDF&t=pi&w=640&h=480&sm=c,8,5,8,4,10,10,7,8,4,6,8,45.57180124,-73.64877096,Ahuntsic-Cartierville,https://www.centris.ca/fr/condo~a-vendre~montreal-le-sud-ouest/28502502?view=Summary
"10149, Avenue Péloquin, Montréal",Maison en copropriété à vendre,1 125 000 $,10 pièces,,1 229 pc,6,5,10,10,3 chambres (1 au sous-sol),2 salles de bain et 1 salle d'eau,https://mspublic.centris.ca/media.ashx?id=ADDD250DC0F7318DDDDDDDDDDD&t=pi&w=640&h=480&sm=c,8,7,9,5,9,9,8,9,4,6,8,45.55648601,-73.65758401,Ahuntsic-Cartierville,https://www.centris.ca/fr/condo~a-vendre~montreal-le-sud-ouest/28502502?view=Summary
"2110, Rue Caroline-Béique, Montréal",Condo à vendre,369 000 $,6 pièces,815 pc,,7,3,7,9,2 chambres,1 salle de bain,https://mspublic.centris.ca/media.ashx?id=ADDD250DCE95305DDDDDDDDDDF&t=pi&w=640&h=480&sm=c,3,3,8,4,7,10,7,8,2,6,5,45.53369676,-73.67247733,Ahuntsic-Cartierville,https://www.centris.ca/fr/condo~a-vendre~montreal-le-sud-ouest/28502502?view=Summary
"10222, boulevard Saint-Laurent, Montréal",Condo à vendre,389 900 $,6 pièces,942 pc,,9,5,10,10,3 chambres,1 salle de bain,https://mspublic.centris.ca/media.ashx?id=ADDD250DC090B75DDDDDDDDDD0&t=pi&w=640&h=480&sm=c,4,7,9,4,10,9,8,9,4,6,9,45.54802792,-73.66363256,Ahuntsic-Cartierville,https://www.centris.ca/fr/condo~a-vendre~montreal-le-sud-ouest/28502502?view=Summary
"1550, boulevard Henri-Bourassa Ouest, Montréal",Condo à vendre,339 900 $,7 pièces,802 pc,,9,3,8,10,2 chambres,1 salle de bain,https://mspublic.centris.ca/media.ashx?id=ADDD250DC0A0B97DDDDDDDDDD4&t=pi&w=640&h=480&sm=c,2,3,9,4,8,8,7,8,2,6,8,45.53722927,-73.67850443,Ahuntsic-Cartierville,https://www.centris.ca/fr/condo~a-vendre~montreal-le-sud-ouest/28502502?view=Summary
"9265, Avenue de l'Esplanade, Montréal",Triplex à vendre,905 000 $,,1 300 pc,3 564 pc,7,5,8,10,,,https://mspublic.centris.ca/media.ashx?id=ADDD250DC08A7B7DDDDDDDDDD2&t=pi&w=640&h=480&sm=c,6,4,9,4,10,9,9,9,4,7,9,45.54111147,-73.65235432,Ahuntsic-Cartierville,https://www.centris.ca/fr/condo~a-vendre~montreal-le-sud-ouest/28502502?view=Summary
"10868, Rue Basile-Routhier, Montréal",Maison en copropriété à vendre,1 051 000 $,13 pièces,,,6,6,8,10,3 chambres,3 salles de bain et 1 salle d'eau,https://mspublic.centris.ca/media.ashx?id=ADDD250DCC88543DDDDDDDDDDB&t=pi&w=640&h=480&sm=c,3,7,9,4,10,8,7,9,5,6,10,45.5571076,-73.6716057,Ahuntsic-Cartierville,https://www.centris.ca/fr/condo~a-vendre~montreal-le-sud-ouest/28502502?view=Summary
"9701, Rue De La Roche, Montréal",Maison à vendre,785 000 $,7 pièces,,3 200 pc,7,5,8,10,3 chambres (2 au sous-sol),2 salles de bain,https://mspublic.centris.ca/media.ashx?id=ADDD250DCA5E2D9DDDDDDDDDDD&t=pi&w=640&h=480&sm=c,6,9,9,4,10,8,7,9,3,6,7,45.5567913,-73.6504845,Ahuntsic-Cartierville,https://www.centris.ca/fr/condo~a-vendre~montreal-le-sud-ouest/28502502?view=Summary
"9448, Avenue Papineau, Montréal",Condo à vendre,499 000 $,6 pièces,1 176 pc,,7,4,7,8,3 chambres,1 salle de bain,https://mspublic.centris.ca/media.ashx?id=ADDD250DCA9B76EDDDDDDDDDDE&t=pi&w=640&h=480&sm=c,3,9,8,4,9,8,7,8,3,6,8,45.56289068,-73.64188217,Ahuntsic-Cartierville,https://www.centris.ca/fr/condo~a-vendre~montreal-le-sud-ouest/28502502?view=Summary
"10550, Place de l'Acadie, Montréal",Condo à vendre,379 000 $,5 pièces,869 pc,,7,3,7,10,2 chambres,1 salle de bain,https://mspublic.centris.ca/media.ashx?id=ADDD250DCC95830DDDDDDDDDDC&t=pi&w=640&h=480&sm=c,4,3,8,4,6,9,7,6,2,6,8,45.5326484,-73.6800345,Ahuntsic-Cartierville,https://www.centris.ca/fr/condo~a-vendre~montreal-le-sud-ouest/28502502?view=Summary
"2450, Rue De Charny, Montréal",Duplex à vendre,739 000 $,,227 pc,5 285 pc,7,6,7,8,,,https://mspublic.centris.ca/media.ashx?id=ADDD250DC04B242DDDDDDDDDD4&t=pi&w=640&h=480&sm=c,9,3,7,3,9,8,7,9,4,6,7,45.5387121,-73.69980986,Ahuntsic-Cartierville,https://www.centris.ca/fr/condo~a-vendre~montreal-le-sud-ouest/28502502?view=Summary
"9428, Rue Basile-Routhier, Montréal",Triplex à vendre,799 000 $,,,2 430 pc,7,5,10,10,,,https://mspublic.centris.ca/media.ashx?id=ADDD250DC0B78D4DDDDDDDDDDD&t=pi&w=640&h=480&sm=c,9,8,9,5,10,10,8,9,4,7,9,45.55048338,-73.65011293,Ahuntsic-Cartierville,https://www.centris.ca/fr/condo~a-vendre~montreal-le-sud-ouest/28502502?view=Summary
"10147, Avenue Péloquin, Montréal",Maison en copropriété à vendre,1 125 000 $,14 pièces,,1 250 pc,6,5,10,10,4 chambres (1 au sous-sol),3 salles de bain et 1 salle d'eau,https://mspublic.centris.ca/media.ashx?id=ADDD250DC0F7D4ADDDDDDDDDDD&t=pi&w=640&h=480&sm=c,8,7,9,5,9,9,8,9,4,6,8,45.55647693,-73.65755271,Ahuntsic-Cartierville,https://www.centris.ca/fr/condo~a-vendre~montreal-le-sud-ouest/28502502?view=Summary
"10856, Rue Basile-Routhier, Montréal",Condo à vendre,792 500 $,8 pièces,1 192 pc,,6,5,10,10,2 chambres,2 salles de bain,https://mspublic.centris.ca/media.ashx?id=ADDD250DCCCE8FDDDDDDDDDDDA&t=pi&w=640&h=480&sm=c,8,7,9,5,9,9,8,9,4,6,8,45.5571076,-73.6716057,Ahuntsic-Cartierville,https://www.centris.ca/fr/condo~a-vendre~montreal-le-sud-ouest/28502502?view=Summary
"10760, Rue Sackville, Montréal",Maison à vendre,720 000 $,13 pièces,,3 845 pc,7,3,8,8,4 chambres,2 salles de bain,https://mspublic.centris.ca/media.ashx?id=ADDD250DC0E11C7DDDDDDDDDDC&t=pi&w=640&h=480&sm=c,4,6,7,4,10,10,6,8,4,5,5,45.5799353,-73.65436905,Ahuntsic-Cartierville,https://www.centris.ca/fr/condo~a-vendre~montreal-le-sud-ouest/28502502?view=Summary
"8745, Rue René-Labelle, Montréal",Condo à vendre,394 000 $,4 pièces,835 pc,,8,4,8,10,2 chambres,1 salle de bain,https://mspublic.centris.ca/media.ashx?id=ADDD250DC08819BDDDDDDDDDDE&t=pi&w=640&h=480&sm=c,8,8,7,4,9,6,8,9,4,6,6,45.55544907,-73.63281342,Ahuntsic-Cartierville,https://www.centris.ca/fr/condo~a-vendre~montreal-le-sud-ouest/28502502?view=Summary
"12491, Rue Ranger, Montréal",Duplex à vendre,885 000 $,,,,7,6,8,10,,,https://mspublic.centris.ca/media.ashx?id=ADDD250DC026D88DDDDDDDDDD2&t=pi&w=640&h=480&sm=c,10,5,7,3,10,9,5,7,3,5,9,45.53403297,-73.72352431,Ahuntsic-Cartierville,https://www.centris.ca/fr/condo~a-vendre~montreal-le-sud-ouest/28502502?view=Summary
"8580, Rue Raymond-Pelletier, Montréal",Condo à vendre,309 000 $,6 pièces,615 pc,,7,5,9,10,1 chambre,1 salle de bain,https://mspublic.centris.ca/media.ashx?id=ADDD250DC084484DDDDDDDDDDC&t=pi&w=640&h=480&sm=c,4,8,8,4,8,8,8,8,4,7,9,45.55303981,-73.63245927,Ahuntsic-Cartierville,https://www.centris.ca/fr/condo~a-vendre~montreal-le-sud-ouest/28502502?view=Summary
"10275, Rue Tanguay, Montréal",Triplex à vendre,1 250 000 $,,,4 299 pc,7,4,9,10,,,https://mspublic.centris.ca/media.ashx?id=ADDD250DC2D8D09DDDDDDDDDD4&t=pi&w=640&h=480&sm=c,8,6,9,4,10,10,8,8,4,6,5,45.54227512,-73.66821587,Ahuntsic-Cartierville,https://www.centris.ca/fr/condo~a-vendre~montreal-le-sud-ouest/28502502?view=Summary
"10239, Avenue Hamelin, Montréal",Condo à vendre,325 000 $,6 pièces,903 pc,,6,3,9,10,2 chambres au sous-sol,1 salle de bain,https://mspublic.centris.ca/media.ashx?id=ADDD250DC01851EDDDDDDDDDDF&t=pi&w=640&h=480&sm=c,8,6,8,4,9,9,7,9,4,6,9,45.56977597,-73.65125614,Ahuntsic-Cartierville,https://www.centris.ca/fr/condo~a-vendre~montreal-le-sud-ouest/28502502?view=Summary
"8793, Rue René-Labelle, Montréal",Condo à vendre,399 000 $,5 pièces,834 pc,,8,4,8,10,2 chambres,1 salle de bain,https://mspublic.centris.ca/media.ashx?id=ADDD250DC01202BDDDDDDDDDDA&t=pi&w=640&h=480&sm=c,8,8,7,4,9,6,8,9,4,6,6,45.55573144,-73.63346272,Ahuntsic-Cartierville,https://www.centris.ca/fr/condo~a-vendre~montreal-le-sud-ouest/28502502?view=Summary
"9579, Rue Foucher, Montréal",Maison à vendre,769 000 $,12 pièces,,2 224 pc,7,5,10,10,2 chambres,1 salle de bain et 1 salle d'eau,https://mspublic.centris.ca/media.ashx?id=ADDD250DC0CD12FDDDDDDDDDD1&t=pi&w=640&h=480&sm=c,8,8,9,4,9,10,8,9,4,6,9,45.5519823,-73.6523473,Ahuntsic-Cartierville,https://www.centris.ca/fr/condo~a-vendre~montreal-le-sud-ouest/28502502?view=Summary
"10151, Rue Saint-Urbain, Montréal",Quadruplex à vendre,2 300 000 $,,,7 900 pc,6,4,10,10,,,https://mspublic.centris.ca/media.ashx?id=ADDD250DC252A2EDDDDDDDDDDB&t=pi&w=640&h=480&sm=c,8,7,9,5,10,9,8,9,4,6,8,45.5463831,-73.6636144,Ahuntsic-Cartierville,https://www.centris.ca/fr/condo~a-vendre~montreal-le-sud-ouest/28502502?view=Summary
"9695, Avenue Merritt, Montréal",Quadruplex à vendre,1 395 000 $,,,4 048 pc,6,3,9,8,,,https://mspublic.centris.ca/media.ashx?id=ADDD250DC0E4730DDDDDDDDDD0&t=pi&w=640&h=480&sm=c,7,7,8,4,10,10,7,9,3,6,9,45.56894627,-73.64393704,Ahuntsic-Cartierville,https://www.centris.ca/fr/condo~a-vendre~montreal-le-sud-ouest/28502502?view=Summary
"8841, Rue Foucher, Montréal",Quadruplex à vendre,1 399 000 $,,,3 644 pc,6,6,10,10,,,https://mspublic.centris.ca/media.ashx?id=ADDD250DCA70223DDDDDDDDDDE&t=pi&w=640&h=480&sm=c,7,7,9,5,9,9,8,9,4,7,8,45.54836842,-73.63989945,Ahuntsic-Cartierville,https://www.centris.ca/fr/condo~a-vendre~montreal-le-sud-ouest/28502502?view=Summary
"9126, Place De Montgolfier, Montréal",Maison à vendre,929 000 $,9 pièces,,3 720 pc,8,5,8,10,4 chambres (1 au sous-sol),2 salles de bain,https://mspublic.centris.ca/media.ashx?id=ADDD250DCA9972EDDDDDDDDDDA&t=pi&w=640&h=480&sm=c,9,10,7,4,10,9,7,9,4,6,5,45.55844763,-73.64051894,Ahuntsic-Cartierville,https://www.centris.ca/fr/condo~a-vendre~montreal-le-sud-ouest/28502502?view=Summary
"8536, Avenue André-Grasset, Montréal",Condo à vendre,514 000 $,5 pièces,1 167 pc,,7,5,9,10,2 chambres (1 au sous-sol),1 salle de bain et 1 salle d'eau,https://mspublic.centris.ca/media.ashx?id=ADDD250DC04C8EDDDDDDDDDDD4&t=pi&w=640&h=480&sm=c,9,7,8,4,9,7,8,9,4,7,7,45.5541086,-73.6276557,Ahuntsic-Cartierville,https://www.centris.ca/fr/condo~a-vendre~montreal-le-sud-ouest/28502502?view=Summary
"8650, Avenue Papineau, Montréal",Quintuplex à vendre,1 550 000 $,,,4 620 pc,8,5,8,8,,,https://mspublic.centris.ca/media.ashx?id=ADDD250DC15B0ABDDDDDDDDDDB&t=pi&w=640&h=480&sm=c,4,6,7,4,8,6,8,9,4,7,6,45.55739936,-73.62961891,Ahuntsic-Cartierville,https://www.centris.ca/fr/condo~a-vendre~montreal-le-sud-ouest/28502502?view=Summary
"1111, Rue Arthur-Lismer, Montréal",Condo à vendre,379 000 $,6 pièces,847 pc,,7,4,7,9,2 chambres,1 salle de bain,https://mspublic.centris.ca/media.ashx?id=ADDD250DC0F6A0BDDDDDDDDDDA&t=pi&w=640&h=480&sm=c,8,3,8,4,6,9,8,9,3,6,3,45.5365016,-73.6688193,Ahuntsic-Cartierville,https://www.centris.ca/fr/condo~a-vendre~montreal-le-sud-ouest/28502502?view=Summary
"9260, boulevard Gouin Ouest, Montréal",Maison à vendre,1 997 000 $,15 pièces,,7 227 pc,10,3,3,10,5 chambres (1 au sous-sol),3 salles de bain et 1 salle d'eau,https://mspublic.centris.ca/media.ashx?id=ADDD250DCACFE93DDDDDDDDDDF&t=pi&w=640&h=480&sm=c,7,5,5,1,2,9,3,1,1,4,9,45.5121987,-73.7503885,Ahuntsic-Cartierville,https://www.centris.ca/fr/condo~a-vendre~montreal-le-sud-ouest/28502502?view=Summary
"9120, Avenue Papineau, Montréal",Quadruplex à vendre,1 089 000 $,,,2 700 pc,8,5,7,8,,,https://mspublic.centris.ca/media.ashx?id=ADDD250DC4B874ADDDDDDDDDD1&t=pi&w=640&h=480&sm=c,2,8,7,4,9,8,7,9,4,6,7,45.56068224,-73.63682367,Ahuntsic-Cartierville,https://www.centris.ca/fr/condo~a-vendre~montreal-le-sud-ouest/28502502?view=Summary
"8528, Avenue André-Grasset, Montréal",Condo à vendre,475 000 $,5 pièces,920 pc,,7,5,9,10,2 chambres (1 au sous-sol),1 salle de bain,https://mspublic.centris.ca/media.ashx?id=ADDD250DCAFAFC2DDDDDDDDDDC&t=pi&w=640&h=480&sm=c,9,7,8,4,9,7,8,9,4,7,7,45.55402389,-73.6274666,Ahuntsic-Cartierville,https://www.centris.ca/fr/condo~a-vendre~montreal-le-sud-ouest/28502502?view=Summary
"2330, Avenue Alfred-Laliberté, Montréal",Maison à vendre,659 000 $,13 pièces,,3 819 pc,8,3,5,7,4 chambres (1 au sous-sol),2 salles de bain,https://mspublic.centris.ca/media.ashx?id=ADDD250DC0BFE98DDDDDDDDDD1&t=pi&w=640&h=480&sm=c,0,3,6,3,5,8,6,5,2,5,7,45.5331679,-73.6820004,Ahuntsic-Cartierville,https://www.centris.ca/fr/condo~a-vendre~montreal-le-sud-ouest/28502502?view=Summary
"11909, boulevard Saint-Germain, Montréal",Maison à vendre,649 000 $,11 pièces,,6 375 pc,7,4,7,9,2 chambres,1 salle de bain et 2 salles d'eau,https://mspublic.centris.ca/media.ashx?id=ADDD250DC0CA9F2DDDDDDDDDDC&t=pi&w=640&h=480&sm=c,6,3,7,3,10,9,5,6,2,5,6,45.53079416,-73.70573568,Ahuntsic-Cartierville,https://www.centris.ca/fr/condo~a-vendre~montreal-le-sud-ouest/28502502?view=Summary
"10856, Rue Basile-Routhier, Montréal",Condo à vendre,849 500 $,11 pièces,1 031 pc,,8,6,8,10,2 chambres,2 salles de bain,https://mspublic.centris.ca/media.ashx?id=ADDD250DC0FA3DCDDDDDDDDDD2&t=pi&w=640&h=480&sm=c,4,7,9,4,10,8,7,9,4,6,9,45.5571076,-73.6716057,Ahuntsic-Cartierville,https://www.centris.ca/fr/condo~a-vendre~montreal-le-sud-ouest/28502502?view=Summary
"1940, Rue Sauvé Est, Montréal",Terrain à vendre,249 800 $,,,2 345 pc,7,3,8,10,,,https://mspublic.centris.ca/media.ashx?id=ADDD250DC0D8BE1DDDDDDDDDDE&t=pi&w=640&h=480&sm=c,1,8,9,4,9,9,7,9,3,6,10,45.566808,-73.6466576,Ahuntsic-Cartierville,https://www.centris.ca/fr/condo~a-vendre~montreal-le-sud-ouest/28502502?view=Summary
"1550, boulevard Henri-Bourassa Ouest, Montréal",Condo à vendre,368 900 $,6 pièces,886 pc,,9,3,8,10,2 chambres,1 salle de bain,https://mspublic.centris.ca/media.ashx?id=ADDD250DCA26E68DDDDDDDDDD4&t=pi&w=640&h=480&sm=c,2,3,9,4,8,8,7,8,2,6,8,45.53722927,-73.67850443,Ahuntsic-Cartierville,https://www.centris.ca/fr/condo~a-vendre~montreal-le-sud-ouest/28502502?view=Summary
"11867, Avenue du Beau-Bois, Montréal",Maison à vendre,1 875 000 $,19 pièces,,6 400 pc,9,2,3,9,6 chambres (2 au sous-sol),3 salles de bain et 1 salle d'eau,https://mspublic.centris.ca/media.ashx?id=ADDD250DC0BADC5DDDDDDDDDD2&t=pi&w=640&h=480&sm=c,9,4,4,1,2,6,2,1,1,4,4,45.51765121,-73.73154104,Ahuntsic-Cartierville,https://www.centris.ca/fr/condo~a-vendre~montreal-le-sud-ouest/28502502?view=Summary
"3585, Place Élie-Auclair, Montréal",Maison à vendre,799 000 $,9 pièces,,2 763 pc,8,5,5,7,4 chambres (1 au sous-sol),2 salles de bain et 1 salle d'eau,https://mspublic.centris.ca/media.ashx?id=ADDD250DC080A24DDDDDDDDDDF&t=pi&w=640&h=480&sm=c,1,2,7,3,8,8,6,8,3,6,5,45.53862731,-73.70582939,Ahuntsic-Cartierville,https://www.centris.ca/fr/condo~a-vendre~montreal-le-sud-ouest/28502502?view=Summary
"10322, Rue Paul-Comtois, Montréal",Condo à vendre,259 000 $,4 pièces,739 pc,,8,3,7,9,1 chambre,1 salle de bain,https://mspublic.centris.ca/media.ashx?id=ADDD250DC092A1BDDDDDDDDDDD&t=pi&w=640&h=480&sm=c,8,5,7,3,5,8,7,8,2,6,3,45.53850625,-73.67312905,Ahuntsic-Cartierville,https://www.centris.ca/fr/condo~a-vendre~montreal-le-sud-ouest/28502502?view=Summary
"1590, Rue Louis-Carrier, Montréal",Condo à vendre,309 900 $,6 pièces,731 pc,,7,3,7,10,1 chambre,1 salle de bain,https://mspublic.centris.ca/media.ashx?id=ADDD250DCE41E19DDDDDDDDDDF&t=pi&w=640&h=480&sm=c,9,3,8,4,8,8,7,7,2,6,7,45.53636036,-73.67758021,Ahuntsic-Cartierville,https://www.centris.ca/fr/condo~a-vendre~montreal-le-sud-ouest/28502502?view=Summary
"20, Avenue du Ruisseau, Montréal",Maison à vendre,2 995 000 $,11 pièces,,18 720 pc,10,4,3,9,5 chambres,3 salles de bain et 1 salle d'eau,https://mspublic.centris.ca/media.ashx?id=ADDD250DCA6E8ABDDDDDDDDDD1&t=pi&w=640&h=480&sm=c,10,5,4,1,3,7,2,1,0,3,7,45.5112388,-73.7552875,Ahuntsic-Cartierville,https://www.centris.ca/fr/condo~a-vendre~montreal-le-sud-ouest/28502502?view=Summary
"8665, Rue Pierre-Dupaigne, Montréal",Condo à vendre,649 000 $,6 pièces,1 323 pc,,10,4,3,9,2 chambres,2 salles de bain,https://mspublic.centris.ca/media.ashx?id=ADDD250DCEDF1B1DDDDDDDDDD1&t=pi&w=640&h=480&sm=c,10,5,4,1,3,7,2,1,0,3,7,45.55389412,-73.63075559,Ahuntsic-Cartierville,https://www.centris.ca/fr/condo~a-vendre~montreal-le-sud-ouest/28502502?view=Summary
"11510, Rue Poincaré, Montréal",Maison à vendre,799 000 $,12 pièces,,5 829 pc,10,3,5,7,4 chambres,1 salle de bain et 1 salle d'eau,https://mspublic.centris.ca/media.ashx?id=ADDD250DCA45DE2DDDDDDDDDDC&t=pi&w=640&h=480&sm=c,8,4,5,2,8,7,5,4,2,4,5,45.5450458,-73.6928475,Ahuntsic-Cartierville,https://www.centris.ca/fr/condo~a-vendre~montreal-le-sud-ouest/28502502?view=Summary
"9950, Place de l'Acadie, Montréal",Condo à vendre,384 900 $,7 pièces,801 pc,,7,3,7,10,2 chambres,1 salle de bain,https://mspublic.centris.ca/media.ashx?id=ADDD250DCE09CCEDDDDDDDDDDD&t=pi&w=640&h=480&sm=c,4,3,8,4,6,9,7,6,2,6,8,45.5334266,-73.6800847,Ahuntsic-Cartierville,https://www.centris.ca/fr/condo~a-vendre~montreal-le-sud-ouest/28502502?view=Summary
"10550, Place de l'Acadie, Montréal",Condo à vendre,325 000 $,5 pièces,787 pc,,10,3,5,9,2 chambres,1 salle de bain,https://mspublic.centris.ca/media.ashx?id=ADDD250DC0230D2DDDDDDDDDD0&t=pi&w=640&h=480&sm=c,0,3,7,4,6,9,7,6,2,6,5,45.5326484,-73.6800345,Ahuntsic-Cartierville,https://www.centris.ca/fr/condo~a-vendre~montreal-le-sud-ouest/28502502?view=Summary
"1500, Rue Jacques-Casault, Montréal",Condo à vendre,449 000 $,5 pièces,902 pc,,9,6,7,10,2 chambres,1 salle de bain,https://mspublic.centris.ca/media.ashx?id=ADDD250DCCF8022DDDDDDDDDDD&t=pi&w=640&h=480&sm=c,0,7,9,5,10,9,8,9,5,7,9,45.5554546,-73.6237041,Villeray-Saint-Michel-Parc-Extension,https://www.centris.ca/fr/condo~a-vendre~montreal-le-sud-ouest/28502502?view=Summary
"11883, Rue Valmont, Montréal",Maison à vendre,534 900 $,10 pièces,,6 548 pc,7,5,7,9,3 chambres,2 salles de bain,https://mspublic.centris.ca/media.ashx?id=ADDD250DC0F1DC0DDDDDDDDDDE&t=pi&w=640&h=480&sm=c,8,6,7,3,10,9,6,8,4,5,10,45.5405588,-73.69235144,Ahuntsic-Cartierville,https://www.centris.ca/fr/condo~a-vendre~montreal-le-sud-ouest/28502502?view=Summary
"10867, Rue Clark, Montréal",Duplex à vendre,889 000 $,,,3 720 pc,7,5,8,10,,,https://mspublic.centris.ca/media.ashx?id=ADDD250DC0E993ADDDDDDDDDD1&t=pi&w=640&h=480&sm=c,7,7,8,4,10,9,7,8,4,6,9,45.55049661,-73.67462207,Ahuntsic-Cartierville,https://www.centris.ca/fr/condo~a-vendre~montreal-le-sud-ouest/28502502?view=Summary
"10550, Place de l'Acadie, Montréal",Condo à vendre,385 000 $,5 pièces,822 pc,,7,3,7,10,2 chambres,1 salle de bain,https://mspublic.centris.ca/media.ashx?id=ADDD250DC0BF9BCDDDDDDDDDD1&t=pi&w=640&h=480&sm=c,4,3,8,4,6,9,7,6,2,6,8,45.5326484,-73.6800345,Ahuntsic-Cartierville,https://www.centris.ca/fr/condo~a-vendre~montreal-le-sud-ouest/28502502?view=Summary
"11780, Rue Tolhurst, Montréal",Condo à vendre,395 000 $,8 pièces,914 pc,,8,3,6,7,2 chambres,1 salle de bain,https://mspublic.centris.ca/media.ashx?id=ADDD250DCA02ABCDDDDDDDDDD1&t=pi&w=640&h=480&sm=c,10,6,7,3,8,10,7,5,3,5,6,45.5489039,-73.68152495,Ahuntsic-Cartierville,https://www.centris.ca/fr/condo~a-vendre~montreal-le-sud-ouest/28502502?view=Summary
"2150, Avenue Étienne-Brûlé, Montréal",Duplex à vendre,799 900 $,,,2 512 pc,7,3,7,9,,,https://mspublic.centris.ca/media.ashx?id=ADDD250DC0D6BDDDDDDDDDDDDC&t=pi&w=640&h=480&sm=c,5,7,7,3,10,8,6,8,3,5,8,45.5721935,-73.661171,Ahuntsic-Cartierville,https://www.centris.ca/fr/condo~a-vendre~montreal-le-sud-ouest/28502502?view=Summary
"9260, boulevard Gouin Ouest, Montréal",Terrain à vendre,798 000 $,,,7 227 pc,10,3,3,10,,,https://mspublic.centris.ca/media.ashx?id=ADDD250DCEEE5C8DDDDDDDDDDC&t=pi&w=640&h=480&sm=c,7,5,5,1,2,9,3,1,0,3,9,45.5121987,-73.7503885,Ahuntsic-Cartierville,https://www.centris.ca/fr/condo~a-vendre~montreal-le-sud-ouest/28502502?view=Summary
"11781, Rue De Saint-Réal, Montréal",Duplex à vendre,699 900 $,,,3 846 pc,8,4,5,9,,,https://mspublic.centris.ca/media.ashx?id=ADDD250DCC7D470DDDDDDDDDDB&t=pi&w=640&h=480&sm=c,4,5,7,3,10,9,6,9,3,5,8,45.5447272,-73.6988746,Ahuntsic-Cartierville,https://www.centris.ca/fr/condo~a-vendre~montreal-le-sud-ouest/28502502?view=Summary
"125, Rue Chabanel Ouest, Montréal",Condo à vendre,445 000 $,4 pièces,1 119 pc,,8,5,7,10,1 chambre,1 salle de bain,https://mspublic.centris.ca/media.ashx?id=ADDD250DCA62339DDDDDDDDDDA&t=pi&w=640&h=480&sm=c,6,5,9,4,10,9,9,9,4,6,9,45.5412739,-73.6531853,Ahuntsic-Cartierville,https://www.centris.ca/fr/condo~a-vendre~montreal-le-sud-ouest/28502502?view=Summary
"10955, Avenue du Bois-de-Boulogne, Montréal",Maison à vendre,849 900 $,21 pièces,,6 750 pc,8,3,7,10,5 chambres (1 au sous-sol),1 salle de bain et 2 salles d'eau,https://mspublic.centris.ca/media.ashx?id=ADDD250DC0B3AAEDDDDDDDDDDF&t=pi&w=640&h=480&sm=c,5,5,8,3,9,7,7,8,2,6,7,45.5386315,-73.6805687,Ahuntsic-Cartierville,https://www.centris.ca/fr/condo~a-vendre~montreal-le-sud-ouest/28502502?view=Summary
"12050, Rue Lachapelle, Montréal",Terrain à vendre,899 900 $,,,4 800 pc,8,5,7,10,,,https://mspublic.centris.ca/media.ashx?id=ADDD250DCEED126DDDDDDDDDD2&t=pi&w=640&h=480&sm=c,6,4,8,4,9,8,5,9,4,6,7,45.527458,-73.7160784,Ahuntsic-Cartierville,https://www.centris.ca/fr/condo~a-vendre~montreal-le-sud-ouest/28502502?view=Summary
"1580, Rue Louis-Carrier, Montréal",Condo à vendre,398 000 $,7 pièces,887 pc,,7,3,7,10,2 chambres,1 salle de bain,https://mspublic.centris.ca/media.ashx?id=ADDD250DC0C7B51DDDDDDDDDD0&t=pi&w=640&h=480&sm=c,9,3,8,4,8,8,7,7,2,6,7,45.53682483,-73.67727066,Ahuntsic-Cartierville,https://www.centris.ca/fr/condo~a-vendre~montreal-le-sud-ouest/28502502?view=Summary
"11459, Rue Frigon, Montréal",Maison à vendre,759 000 $,12 pièces,,3 796 pc,7,4,6,9,3 chambres,2 salles de bain,https://mspublic.centris.ca/media.ashx?id=ADDD250DC07DC1EDDDDDDDDDD2&t=pi&w=640&h=480&sm=c,9,3,7,3,8,10,7,8,3,5,10,45.53613414,-73.68829779,Ahuntsic-Cartierville,https://www.centris.ca/fr/condo~a-vendre~montreal-le-sud-ouest/28502502?view=Summary
"2100, Rue Alice-Nolin, Montréal",Condo à vendre,335 000 $,5 pièces,640 pc,,8,4,7,9,1 chambre,1 salle de bain,https://mspublic.centris.ca/media.ashx?id=ADDD250DCCE85F0DDDDDDDDDDD&t=pi&w=640&h=480&sm=c,7,3,8,3,9,8,8,9,3,6,3,45.5337401,-73.6668573,Ahuntsic-Cartierville,https://www.centris.ca/fr/condo~a-vendre~montreal-le-sud-ouest/28502502?view=Summary
"10650, Place de l'Acadie, Montréal",Condo à vendre,419 000 $,6 pièces,875 pc,,9,3,7,10,2 chambres,1 salle de bain,https://mspublic.centris.ca/media.ashx?id=ADDD250DC034433DDDDDDDDDDB&t=pi&w=640&h=480&sm=c,4,3,8,4,6,9,7,7,2,6,8,45.5333782,-73.6792193,Ahuntsic-Cartierville,https://www.centris.ca/fr/condo~a-vendre~montreal-le-sud-ouest/28502502?view=Summary
"10096, boulevard Saint-Laurent, Montréal",Condo à vendre,449 000 $,7 pièces,821 pc,,9,5,9,10,2 chambres,1 salle de bain,https://mspublic.centris.ca/media.ashx?id=ADDD250DCA96E15DDDDDDDDDDD&t=pi&w=640&h=480&sm=c,4,7,10,4,10,9,8,9,4,7,9,45.54752807,-73.66198071,Ahuntsic-Cartierville,https://www.centris.ca/fr/condo~a-vendre~montreal-le-sud-ouest/28502502?view=Summary
"10745, Rue Séguin, Montréal",Quintuplex à vendre,1 499 000 $,,,5 722 pc,7,3,7,10,,,https://mspublic.centris.ca/media.ashx?id=ADDD250DC0A54E5DDDDDDDDDDF&t=pi&w=640&h=480&sm=c,4,7,9,4,10,10,6,8,3,6,9,45.57179173,-73.65866147,Ahuntsic-Cartierville,https://www.centris.ca/fr/condo~a-vendre~montreal-le-sud-ouest/28502502?view=Summary
"10689, Rue Rancourt, Montréal",Duplex à vendre,779 000 $,,,4 176 pc,6,3,8,7,,,https://mspublic.centris.ca/media.ashx?id=ADDD250DC09DDF6DDDDDDDDDD2&t=pi&w=640&h=480&sm=c,4,6,7,4,9,9,6,9,4,6,7,45.57604648,-73.65463081,Ahuntsic-Cartierville,https://www.centris.ca/fr/condo~a-vendre~montreal-le-sud-ouest/28502502?view=Summary
"1064, Place Pierre-Dupaigne, Montréal",Condo à vendre,450 000 $,5 pièces,930 pc,,8,5,9,10,2 chambres (1 au sous-sol),1 salle de bain,https://mspublic.centris.ca/media.ashx?id=ADDD250DC08CF90DDDDDDDDDDF&t=pi&w=640&h=480&sm=c,8,7,8,4,8,8,8,8,4,7,8,45.55287246,-73.63031526,Ahuntsic-Cartierville,https://www.centris.ca/fr/condo~a-vendre~montreal-le-sud-ouest/28502502?view=Summary
"1325, Rue Antoine-Déat, Montréal",Condo à vendre,449 000 $,5 pièces,985 pc,,8,3,7,10,2 chambres,1 salle de bain,https://mspublic.centris.ca/media.ashx?id=ADDD250DCC539EFDDDDDDDDDDC&t=pi&w=640&h=480&sm=c,4,9,7,3,10,8,7,7,3,6,7,45.5614747,-73.6458661,Ahuntsic-Cartierville,https://www.centris.ca/fr/condo~a-vendre~montreal-le-sud-ouest/28502502?view=Summary
